City_ID,City,Lat,Lng,Max Temp,Humidity,Cloudiness,Wind Speed,Country,Date
0,port-aux-francais,-49.35,70.2167,2.11,67,83,13.37,TF,1698030823
1,puerto ayora,-0.7393,-90.3518,23.24,84,94,4.93,EC,1698031130
2,christchurch,-43.5333,172.6333,18.08,65,38,8.75,NZ,1698031131
3,cabo san lucas,22.8909,-109.9124,27.09,86,75,4.12,MX,1698031132
4,edinburgh of the seven seas,-37.0676,-12.3116,12.44,73,89,3.47,SH,1698031134
5,whitehorse,60.7161,-135.0538,-7.57,57,100,2.57,CA,1698031111
6,suihua,46.6406,126.9969,13.51,34,0,7.49,CN,1698031136
7,college,64.8569,-147.8028,-3.29,90,100,0.0,US,1698030863
8,puerto natales,-51.7236,-72.4875,3.25,87,20,3.09,CL,1698031139
9,grytviken,-54.2811,-36.5092,-0.23,85,20,4.38,GS,1698031140
10,broome,42.2506,-75.833,5.95,94,100,4.63,US,1698031142
11,nar'yan-mar,67.6713,53.087,-0.79,96,100,6.08,RU,1698030949
12,grinnell,41.743,-92.7224,11.92,74,0,3.09,US,1698031145
13,okha,53.5739,142.9478,4.11,64,99,9.32,RU,1698031146
14,tazovsky,67.4667,78.7,-3.98,88,100,5.98,RU,1698031147
15,blackmans bay,-43.0167,147.3167,18.62,66,72,1.79,AU,1698031149
16,invercargill,-46.4,168.35,15.01,66,98,3.58,NZ,1698031151
17,portland,45.5234,-122.6762,14.99,89,75,2.06,US,1698030694
18,tolanaro,-25.0319,46.9987,22.8,83,68,0.97,MG,1698031153
19,nizhniy ingash,56.2,96.53,6.49,50,100,3.7,RU,1698031155
20,egersund,58.4513,5.9997,8.94,89,100,0.61,NO,1698031156
21,kingston,17.997,-76.7936,29.53,83,20,1.54,JM,1698030847
22,waitangi,-43.9535,-176.5597,10.46,77,82,2.24,NZ,1698031158
23,port alfred,-33.5906,26.891,12.32,90,32,1.34,ZA,1698031160
24,adamstown,-25.066,-130.1015,23.15,78,30,4.46,PN,1698031161
25,thompson,55.7435,-97.8558,-4.91,74,0,1.54,CA,1698030896
26,rosarito,32.3333,-117.0333,19.71,85,8,3.3,MX,1698031164
27,ushuaia,-54.8,-68.3,6.81,65,0,2.57,AR,1698031038
28,longyearbyen,78.2186,15.6401,-10.09,67,0,3.09,SJ,1698031167
29,weno,7.4515,151.8468,30.97,79,75,2.06,FM,1698031168
30,qaqortoq,60.7167,-46.0333,1.62,63,100,1.35,GL,1698031170
31,acarau,-2.8856,-40.12,25.57,82,27,7.01,BR,1698031103
32,santo anastacio,-21.8383,-51.6103,25.74,41,63,3.49,BR,1698031172
33,albany,42.6001,-73.9662,6.23,77,100,2.68,US,1698030910
34,saipan,15.1355,145.701,31.39,70,75,7.72,MP,1698031175
35,okhotsk,59.3833,143.3,-1.33,78,45,7.32,RU,1698031177
36,kiboga,0.9161,31.7742,16.55,99,81,0.26,UG,1698031178
37,iqaluit,63.7506,-68.5145,-7.15,73,75,3.09,CA,1698031179
38,pacific grove,36.6177,-121.9166,16.35,91,100,2.06,US,1698031175
39,ribeira grande,38.5167,-28.7,18.21,80,87,1.34,PT,1698031181
40,tura,25.5198,90.2201,24.79,72,100,0.78,IN,1698031183
41,terra santa,-2.1042,-56.4869,24.46,87,18,1.35,BR,1698031185
42,st. john's,47.5649,-52.7093,8.87,95,100,7.2,CA,1698031035
43,hawaiian paradise park,19.5933,-154.9731,26.73,79,0,6.17,US,1698031188
44,khandyga,62.6667,135.6,-7.15,87,100,1.46,RU,1698031190
45,bodo,67.28,14.405,2.75,46,0,9.26,NO,1698031191
46,kurchatov,51.6601,35.6521,11.23,95,98,5.52,RU,1698031192
47,pemangkat,1.1667,108.9667,28.61,71,100,1.67,ID,1698031194
48,port saint john's,-31.6229,29.5448,14.39,79,0,2.18,ZA,1698031195
49,keflavik,64.0049,-22.5624,4.24,81,75,2.57,IS,1698031196
50,yellowknife,62.456,-114.3525,-5.33,95,100,8.05,CA,1698031198
51,atafu village,-8.5421,-172.5159,29.05,70,78,3.89,TK,1698031199
52,mugia,43.1041,-9.2179,13.42,87,100,3.75,ES,1698031200
53,north elba,44.2434,-73.9543,2.88,98,100,1.61,US,1698031202
54,enewetak,11.3474,162.3373,28.74,71,95,4.5,MH,1698031203
55,tiksi,71.6872,128.8694,-10.53,96,100,2.41,RU,1698031205
56,vorgashor,67.5833,63.95,-12.07,97,94,1.99,RU,1698031206
57,turiacu,-1.6633,-45.3717,24.47,92,33,1.93,BR,1698031047
58,sovetskaya gavan',48.9723,140.2878,7.29,36,0,4.4,RU,1698031209
59,punta alta,-38.8759,-62.0736,11.71,100,100,5.14,AR,1698031210
60,nuuk,64.1835,-51.7216,-3.66,86,7,4.63,GL,1698031211
61,yuzhno-kurilsk,44.0306,145.8556,10.76,57,9,7.62,RU,1698031213
62,marsh harbour,26.5412,-77.0636,26.24,55,100,1.44,BS,1698031214
63,bethel,41.3712,-73.414,8.06,73,0,2.06,US,1698031216
64,remire-montjoly,4.9167,-52.2667,28.02,89,100,1.03,GF,1698031217
65,anadyr,64.75,177.4833,4.28,100,75,10.0,RU,1698031218
66,vilyuchinsk,52.9306,158.4028,8.15,78,77,3.27,RU,1698031219
67,aasiaat,68.7098,-52.8699,-13.93,82,26,3.0,GL,1698030927
68,dalton,34.7698,-84.9702,15.82,70,20,2.06,US,1698031222
69,tralee,52.2704,-9.7026,10.42,95,100,3.24,IE,1698031224
70,port alberni,49.2413,-124.8028,10.91,88,21,0.45,CA,1698031225
71,ubinskoye,55.3068,79.6802,1.25,96,100,7.99,RU,1698031227
72,carnarvon,-24.8667,113.6333,23.86,46,1,7.61,AU,1698031228
73,arkhangel'sk,64.5401,40.5433,-1.27,91,83,1.04,RU,1698031229
74,udachny,66.4167,112.4,-3.64,92,100,2.94,RU,1698031231
75,afaahiti,-17.75,-149.2833,26.93,82,46,5.73,PF,1698031232
76,aykhal,66.0,111.5,-6.59,95,100,0.73,RU,1698031233
77,lihue,21.9789,-159.3672,26.87,75,20,7.2,US,1698031235
78,al muwayh,22.4333,41.7583,20.51,32,0,5.6,SA,1698031236
79,isafjordur,66.0755,-23.124,3.6,80,99,1.65,IS,1698031237
80,smithers,54.7804,-127.1743,-0.82,86,20,2.06,CA,1698031239
81,shiguai,40.7058,110.2856,12.35,24,16,2.35,CN,1698031240
82,port lincoln,-34.7333,135.8667,20.34,48,100,6.92,AU,1698031242
83,labytnangi,66.6572,66.4183,-4.14,88,100,2.92,RU,1698031244
84,vallegrande,-18.4897,-64.1069,18.46,44,8,3.64,BO,1698031246
85,san patricio,28.017,-97.5169,26.97,77,39,4.93,US,1698031247
86,chambersburg,39.9376,-77.6611,9.31,56,1,4.02,US,1698031248
87,haiku-pauwela,20.9219,-156.3051,26.13,77,75,3.6,US,1698031020
88,oranjemund,-28.55,16.4333,15.33,91,34,3.82,NA,1698031251
89,georgetown,5.4112,100.3354,30.96,70,20,2.06,MY,1698031252
90,malvan,16.0667,73.4667,27.18,55,100,2.63,IN,1698031254
91,olonkinbyen,70.9221,-8.7187,3.2,89,100,5.82,SJ,1698031255
92,belyy yar,53.6039,91.3903,4.94,75,0,3.0,RU,1698031256
93,bilibino,68.0546,166.4372,-5.27,94,98,1.36,RU,1698031258
94,saint-pierre,-21.3393,55.4781,25.87,53,0,1.54,RE,1698031259
95,batu gajah,4.4692,101.0411,29.86,78,20,1.54,MY,1698031085
96,rauma,61.1272,21.5113,1.02,97,100,2.32,FI,1698031261
97,concepcion,-36.827,-73.0498,10.89,76,0,5.66,CL,1698031263
98,hotan,37.0997,79.9269,15.49,17,4,1.69,CN,1698031264
99,praia da vitoria,38.7333,-27.0667,17.09,94,20,5.47,PT,1698031266
100,schweizer-reneke,-27.1887,25.3293,14.51,58,58,2.57,ZA,1698031268
101,constantia,44.1833,28.65,15.39,58,7,3.46,RO,1698031271
102,bikenibeu village,1.3673,173.1241,28.98,84,75,1.03,KI,1698031273
103,urengoy,65.9667,78.3667,-3.65,94,50,4.79,RU,1698031274
104,mossel bay,-34.1831,22.146,11.96,74,95,2.56,ZA,1698031275
105,wailua homesteads,22.0669,-159.378,26.53,76,20,7.2,US,1698031277
106,al burayqah,30.4062,19.5739,24.05,61,0,2.48,LY,1698031279
107,ugoofaaru,5.6667,73.0,27.77,74,48,3.16,MV,1698031280
108,west island,-12.1568,96.8225,27.99,65,40,5.14,CC,1698031281
109,selfoss,63.9331,-20.9971,0.58,80,99,1.82,IS,1698031283
110,mikhaylovsk,45.1283,42.0256,11.12,87,0,3.13,RU,1698031285
111,kurumkan,54.3,110.3,4.21,46,75,1.06,RU,1698031289
112,linqu,36.5156,118.5397,22.75,24,0,4.69,CN,1698031290
113,colonia,50.9333,6.95,11.09,92,0,2.57,DE,1698031291
114,stanley,54.868,-1.6985,-0.99,100,0,0.51,GB,1698031293
115,nanao,37.05,136.9667,22.95,65,98,3.25,JP,1698031295
116,punta arenas,-53.15,-70.9167,5.06,75,40,4.12,CL,1698031296
117,graaff-reinet,-32.2522,24.5308,11.5,81,94,0.77,ZA,1698031298
118,petropavlovsk-kamchatsky,53.0452,158.6483,7.33,57,75,5.0,RU,1698031299
119,jamestown,42.097,-79.2353,6.77,87,100,4.12,US,1698031301
120,palikir - national government center,6.9248,158.1611,30.41,79,75,2.06,FM,1698031302
121,alofi,-19.0595,-169.9187,23.94,94,75,1.54,NU,1698031303
122,detroit lakes,46.8172,-95.8453,12.03,77,75,7.2,US,1698031305
123,murashi,59.3999,48.9615,-2.73,96,97,2.73,RU,1698031307
124,businga,3.3333,20.8833,21.41,98,42,0.38,CD,1698031308
125,stephenville,32.2207,-98.2023,25.14,60,0,4.12,US,1698031309
126,ballina,-28.8667,153.5667,33.21,64,11,5.51,AU,1698031311
127,opuwo,-18.0607,13.84,18.0,21,1,2.07,NA,1698031312
128,puerto baquerizo moreno,-0.9,-89.6,23.5,81,88,6.05,EC,1698031314
129,sungai raya,0.7,108.9,28.45,71,99,1.28,ID,1698031315
130,chanar ladeado,-33.3252,-62.0383,19.33,94,100,6.01,AR,1698031317
131,norrtalje,59.758,18.705,5.57,94,100,2.06,SE,1698031318
132,jawf al maqbabah,13.8378,45.8349,22.85,60,53,1.05,YE,1698031320
133,flying fish cove,-10.4217,105.6791,28.82,69,40,3.6,CX,1698031321
134,kone,-21.0595,164.8658,27.37,47,39,3.73,NC,1698031323
135,akureyri,65.6835,-18.0878,0.96,100,100,0.0,IS,1698031324
136,uturoa,-16.7333,-151.4333,26.9,79,41,6.42,PF,1698031326
137,mejit,10.2753,170.8646,26.27,84,100,6.48,MH,1698031327
138,chonchi,-42.6128,-73.8092,7.29,96,9,1.85,CL,1698031330
139,ondjiva,-17.0667,15.7333,18.4,24,8,2.91,AO,1698031331
140,hermanus,-34.4187,19.2345,16.25,73,99,2.65,ZA,1698031333
141,miahuatlan,18.5667,-97.4333,15.68,83,100,1.99,MX,1698031334
142,castillos,-34.1667,-53.8333,18.13,99,100,1.82,UY,1698031336
143,kuqa,41.7278,82.9364,14.54,25,22,1.6,CN,1698031338
144,islamorada,24.9243,-80.6278,25.56,87,94,0.45,US,1698031298
145,taseyevo,57.2169,94.8978,5.33,57,100,5.18,RU,1698031340
146,mount isa,-20.7333,139.5,35.87,11,0,2.57,AU,1698031341
147,karyes,37.3,22.5,14.56,56,18,0.62,GR,1698031343
148,iskateley,67.6803,53.1512,-0.79,96,100,6.0,RU,1698031345
149,bakanas,44.8081,76.2772,13.12,65,96,8.47,KZ,1698031347
150,port mathurin,-19.6833,63.4167,24.56,79,5,5.63,MU,1698031348
151,avarua,-21.2078,-159.775,26.03,89,75,2.57,CK,1698031349
152,evron,48.1564,-0.3997,8.9,86,100,4.17,FR,1698031351
153,rongelap,11.1635,166.8941,26.86,84,100,8.58,MH,1698031354
154,usogorsk,63.4106,48.6872,-0.94,91,100,3.71,RU,1698031356
155,east london,-33.0153,27.9116,12.52,82,0,2.06,ZA,1698031357
156,margaret river,-33.95,115.0667,15.35,46,97,4.66,AU,1698031359
157,flin flon,54.7682,-101.865,-2.6,54,39,2.55,CA,1698031360
158,igarka,67.4667,86.5833,-2.27,95,97,4.25,RU,1698031362
159,lebu,-37.6167,-73.65,9.57,86,2,6.36,CL,1698031363
160,itaituba,-4.2761,-55.9836,27.21,70,77,0.91,BR,1698031364
161,kapuskasing,49.4169,-82.4331,-1.0,86,0,1.03,CA,1698031365
162,puerto colombia,10.9878,-74.9547,28.05,73,99,4.67,CO,1698031367
163,guixi,28.2886,117.2133,22.89,68,0,1.64,CN,1698031370
164,gamba,-2.65,10.0,24.39,94,100,2.75,GA,1698031371
165,huarmey,-10.0681,-78.1522,20.64,87,27,4.83,PE,1698031373
166,hamilton,39.1834,-84.5333,7.79,86,0,0.89,US,1698031090
167,ghat,24.9647,10.1728,26.67,17,89,1.82,LY,1698031375
168,bogandinskiy,56.8937,65.8938,-0.82,76,86,5.5,RU,1698031377
169,orahovac,42.3994,20.6547,11.92,85,46,0.41,XK,1698031379
170,hithadhoo,-0.6,73.0833,27.45,69,92,4.65,MV,1698031380
171,nemuro,43.3236,145.575,11.28,59,37,6.32,JP,1698031382
172,klyuchi,52.2667,79.1667,1.49,88,100,12.59,RU,1698031384
173,victoria falls,-17.9235,25.843,24.47,51,75,1.77,ZW,1698031024
174,kapa'a,22.0752,-159.319,27.28,75,20,7.2,US,1698031388
175,tianpeng,30.9866,103.9393,19.26,63,94,1.01,CN,1698031389
176,mangalia,43.8,28.5833,19.91,52,25,3.35,RO,1698031390
177,talnakh,69.4865,88.3972,-2.66,92,100,6.52,RU,1698031391
178,gornopravdinsk,60.05,69.9,-1.89,79,97,4.06,RU,1698031392
179,carutapera,-1.195,-46.02,26.06,86,41,3.25,BR,1698031394
180,sona,45.4388,10.8255,14.03,87,0,2.06,IT,1698031202
181,sao gabriel da cachoeira,-0.1303,-67.0892,23.4,96,96,1.2,BR,1698031396
182,serra,-20.1286,-40.3078,19.7,100,100,0.0,BR,1698031397
183,utrik,11.2278,169.8474,25.43,90,100,9.33,MH,1698031399
184,kapit,2.0167,112.9333,25.77,88,100,0.34,MY,1698031400
185,banda aceh,5.5577,95.3222,27.77,72,99,1.68,ID,1698031403
186,port elizabeth,-33.918,25.5701,15.16,83,0,7.72,ZA,1698031404
187,laguna,38.421,-121.4238,17.6,91,100,3.09,US,1698031405
188,quellon,-43.1167,-73.6167,7.42,93,6,3.45,CL,1698031407
189,ilulissat,69.2167,-51.1,-5.99,68,0,4.12,GL,1698031408
190,ndjole,-0.1783,10.7649,23.63,99,100,0.56,GA,1698031410
191,jianshui,23.6363,102.8264,22.13,69,30,1.72,CN,1698031411
192,kadipur,26.1667,82.3833,24.25,49,0,0.69,IN,1698031158
193,altai,46.3722,96.2583,6.79,42,20,2.78,MN,1698031413
194,luderitz,-26.6481,15.1594,14.36,90,30,0.42,NA,1698031415
195,ochakiv,46.6128,31.5498,16.99,63,34,4.54,UA,1698031416
196,elk,53.8282,22.3647,10.59,94,100,5.82,PL,1698031417
197,sansanne-mango,10.3592,0.4708,25.06,63,53,1.51,TG,1698031419
198,changling,44.2653,124.0005,16.83,32,0,9.31,CN,1698031420
199,papatowai,-46.5619,169.4708,13.14,60,88,3.62,NZ,1698031422
200,hammerfest,70.6634,23.6821,0.25,74,40,1.03,NO,1698031423
201,juayua,13.8414,-89.7456,18.17,97,59,0.64,SV,1698031424
202,drezna,55.7458,38.8497,2.91,95,100,2.29,RU,1698031425
203,mareeba,-17.0,145.4333,34.69,31,7,3.34,AU,1698031427
204,mana,5.6592,-53.7767,26.05,92,60,4.4,GF,1698031428
205,inarajan village,13.2736,144.7484,31.54,87,84,7.51,GU,1698031430
206,new norfolk,-42.7826,147.0587,19.28,55,77,3.73,AU,1698031431
207,vernon,50.2581,-119.2691,9.61,79,0,2.57,CA,1698030871
208,ad dabbah,18.05,30.95,26.01,26,2,5.26,SD,1698031433
209,lionel town,17.8101,-77.2406,29.94,83,94,1.89,JM,1698031435
210,codrington,-38.2667,141.9667,16.37,52,13,4.53,AU,1698031436
211,ust-nera,64.5667,143.2,-7.52,91,100,1.78,RU,1698031438
212,ceska skalice,50.3947,16.0428,12.28,87,90,1.48,CZ,1698031439
213,santa cruz,-17.8,-63.1667,27.7,54,8,3.09,BO,1698031320
214,puerto ayacucho,5.6639,-67.6236,22.98,96,95,0.53,VE,1698031442
215,nova sintra,14.8667,-24.7167,23.76,76,16,2.68,CV,1698031443
216,santarem,-2.4431,-54.7083,29.07,89,20,1.54,BR,1698031444
217,opp,31.2827,-86.2555,17.27,91,0,0.0,US,1698031445
218,dongola,19.1667,30.4833,25.18,29,0,5.27,SD,1698031447
219,ciudad melchor muzquiz,27.8833,-101.5167,24.55,66,99,0.86,MX,1698031448
220,sur,22.5667,59.5289,26.77,63,100,2.38,OM,1698031449
221,gannan,47.9147,123.5031,12.81,30,0,2.99,CN,1698031451
222,hollis,42.7431,-71.5917,8.47,81,100,4.63,US,1698031399
223,minas de marcona,-15.2119,-75.1103,15.09,91,100,5.75,PE,1698031454
224,agios nikolaos,35.1914,25.7133,23.05,57,24,1.56,GR,1698031455
225,kidal,18.4411,1.4078,29.24,13,94,3.58,ML,1698031456
226,barcelos,41.5388,-8.6151,15.47,93,100,0.94,PT,1698031457
227,port isabel,26.0734,-97.2086,28.02,77,75,7.2,US,1698031459
228,madang,-5.2246,145.7966,30.14,63,58,3.31,PG,1698031460
229,berezovyy,51.6667,135.7,6.91,28,2,2.99,RU,1698031462
230,gumla,23.05,84.55,21.46,62,96,2.57,IN,1698031463
231,bantay,17.5847,120.3892,28.31,69,90,1.24,PH,1698031464
232,qarshi,38.8667,65.8,13.9,94,40,0.0,UZ,1698031465
233,bamboo flat,11.7,92.7167,29.05,79,20,1.03,IN,1698031467
234,onega,63.9061,38.1404,0.06,85,45,1.96,RU,1698031468
235,port blair,11.6667,92.75,29.02,79,20,1.03,IN,1698031469
236,madaoua,14.073,5.96,27.16,16,0,3.08,NE,1698031471
237,vadso,70.0744,29.7487,0.49,80,20,6.69,NO,1698031472
238,zvishavane,-20.3267,30.0665,18.2,86,91,4.58,ZW,1698031473
239,saint-joseph,-21.3667,55.6167,25.26,75,14,3.14,RE,1698031474
240,markaz-e hukumat-e darweshan,31.1323,64.1934,21.31,25,4,1.59,AF,1698031475
241,floro,61.5996,5.0328,8.98,66,100,2.06,NO,1698031477
242,mount gambier,-37.8333,140.7667,20.01,34,41,1.85,AU,1698031479
243,sisimiut,66.9395,-53.6735,-4.67,73,98,5.46,GL,1698031480
244,coquimbo,-29.9533,-71.3436,14.85,88,100,3.09,CL,1698031482
245,moa,20.6569,-74.9403,27.01,84,67,3.48,CU,1698031483
246,humaita,-7.5061,-63.0208,29.22,54,100,1.44,BR,1698031485
247,calabozo,8.9242,-67.4293,23.64,96,99,1.58,VE,1698031486
248,mazagao,-0.115,-51.2894,29.03,79,67,2.75,BR,1698031488
249,metropolis,37.1512,-88.732,12.83,88,0,0.0,US,1698031489
250,tyrnyauz,43.3828,42.9183,11.79,61,19,3.36,RU,1698031491
251,extrema,-22.8547,-46.3183,16.89,92,31,1.33,BR,1698031492
252,massaguet,12.4755,15.4365,27.28,16,39,4.55,TD,1698031493
253,sao paulo de olivenca,-3.3783,-68.8725,24.68,81,100,0.89,BR,1698031495
254,bredasdorp,-34.5322,20.0403,12.93,83,100,2.15,ZA,1698031496
255,shetpe,44.1667,52.1167,4.21,64,1,2.33,KZ,1698031498
256,happy valley-goose bay,53.3168,-60.3315,1.17,60,75,4.12,CA,1698031296
257,manado,1.487,124.8455,34.43,49,40,1.54,ID,1698031501
258,zhosaly,45.4878,64.0781,4.82,57,100,3.18,KZ,1698031502
259,arraial do cabo,-22.9661,-42.0278,21.05,78,98,6.9,BR,1698031437
260,noyemberyan,41.1724,44.9992,10.13,84,62,0.79,AM,1698031505
261,cilaos,-21.1336,55.4719,18.35,74,24,0.28,RE,1698031506
262,kemi,65.8596,24.8228,-5.13,93,100,2.57,FI,1698031507
263,daru,-9.0763,143.2092,27.67,56,33,4.05,PG,1698031508
264,hasaki,35.7333,140.8333,24.05,47,88,2.53,JP,1698031510
265,mount darwin,-16.7725,31.5838,22.01,67,26,1.15,ZW,1698031511
266,kochubey,44.3861,46.5825,10.6,84,6,4.9,RU,1698031512
267,krasnovishersk,60.4078,57.082,-1.98,85,100,3.52,RU,1698031514
268,kyzylorda,44.8528,65.5092,4.01,81,75,4.0,KZ,1698031515
269,moog,8.6011,124.4658,29.57,68,98,1.97,PH,1698031516
270,driefontein,-27.0177,30.4498,10.84,93,91,0.3,ZA,1698031518
271,tanumah,27.1,44.1333,22.8,27,100,4.0,SA,1698031520
272,taro,-8.3862,115.28,26.03,45,31,2.31,ID,1698031521
273,kargasok,59.0556,80.8572,-0.52,95,100,7.51,RU,1698031523
274,bridlington,54.0831,-0.1919,6.61,80,38,1.15,GB,1698031524
275,bardai,11.65,7.2333,21.85,23,11,4.01,NG,1698031526
276,dakhla,23.6848,-15.958,22.04,84,3,4.42,EH,1698031527
277,amuntai,-2.4177,115.2494,35.51,43,88,0.74,ID,1698031529
278,mahina,-17.5065,-149.489,27.87,69,40,7.72,PF,1698031530
279,cabedelo,-6.9811,-34.8339,24.37,79,99,5.66,BR,1698031531
280,bonnyville,54.2668,-110.735,-2.38,63,100,3.85,CA,1698031532
281,cururupu,-1.8283,-44.8683,25.18,88,25,2.1,BR,1698031534
282,sagua la grande,22.8067,-80.0756,23.55,82,95,3.47,CU,1698031535
283,kodinsk,58.6881,99.1844,2.18,66,100,3.51,RU,1698031537
284,whitewater,42.8336,-88.7323,6.33,84,34,2.56,US,1698031275
285,lagoa,39.05,-27.9833,18.15,70,78,5.51,PT,1698031539
286,saint-francois,46.4154,3.9054,9.8,92,0,1.54,FR,1698031540
287,noshiro,40.2039,140.0242,17.46,47,5,3.9,JP,1698031542
288,juneau,58.3019,-134.4197,-0.44,59,20,4.12,US,1698031543
289,gorom-gorom,14.4439,-0.2361,29.18,14,2,3.86,BF,1698031544
290,lospalos,-8.5186,127.0025,32.57,32,52,3.58,TL,1698031546
291,velikiy ustyug,60.7644,46.3106,-2.68,95,98,2.72,RU,1698031547
292,la passe,45.5549,-0.8967,12.13,76,100,4.95,FR,1698031549
293,cobija,-11.0267,-68.7692,27.02,58,100,1.46,BO,1698031550
294,oroville east,39.5113,-121.4752,15.42,90,100,2.06,US,1698031552
295,hinton,53.4001,-117.5857,-3.93,87,100,1.94,CA,1698031553
296,richards bay,-28.783,32.0377,17.18,67,100,4.98,ZA,1698031555
297,nadym,65.5333,72.5167,-3.6,94,58,5.66,RU,1698031556
298,quinte west,44.1834,-77.5662,5.97,74,100,3.6,CA,1698031558
299,ko pha ngan,9.7578,100.0291,27.38,76,100,2.2,TH,1698031559
300,ramanuj ganj,23.8,83.7,21.73,64,27,0.67,IN,1698031560
301,kristiansund,63.1115,7.732,7.36,65,100,1.54,NO,1698031563
302,nangomba,-10.9,38.5,21.58,81,0,2.4,TZ,1698031565
303,chibougamau,49.9168,-74.3659,-0.21,93,0,2.06,CA,1698031567
304,badger,64.8,-147.5333,-3.34,91,20,0.0,US,1698031568
305,bandarbeyla,9.4942,50.8122,26.93,81,98,3.74,SO,1698031523
306,dudinka,69.4058,86.1778,-2.43,88,100,3.94,RU,1698031572
307,bonthe,7.5264,-12.505,25.28,87,99,1.87,SL,1698031573
308,ancud,-41.8697,-73.8203,7.83,87,0,0.7,CL,1698031574
309,ketchikan,55.3422,-131.6461,5.99,70,0,3.09,US,1698031576
310,mersa matruh,31.3525,27.2453,22.0,73,5,2.89,EG,1698031577
311,lautoka,-17.6167,177.4667,28.92,70,75,6.69,FJ,1698031579
312,pokrovsk,48.282,37.1758,11.99,93,74,5.0,UA,1698031580
313,kamyzyak,46.11,48.0736,-0.01,93,0,3.0,RU,1698031582
314,olyokminsk,60.3736,120.4264,2.34,71,91,5.54,RU,1698031583
315,san lawrenz,36.0553,14.204,21.03,77,5,5.76,MT,1698031584
316,ola,59.5833,151.2833,2.84,83,100,6.33,RU,1698031587
317,sumenep,-7.0167,113.8667,30.93,57,98,5.32,ID,1698031590
318,la'ie,21.6477,-157.9253,27.98,74,59,0.45,US,1698031591
319,phang nga,8.4509,98.5298,30.02,77,100,0.96,TH,1698031592
320,lerwick,60.1545,-1.1494,10.0,72,17,5.06,GB,1698031594
321,fort-shevchenko,44.5086,50.263,7.15,61,0,4.12,KZ,1698031595
322,east ballina,-28.8667,153.5833,33.22,66,10,5.65,AU,1698031596
323,rio grande,-32.035,-52.0986,18.3,96,100,4.1,BR,1698031597
324,pueblo nuevo,23.3833,-105.3833,11.58,95,54,0.88,MX,1698031598
325,balykshi,47.0667,51.8667,0.0,80,14,3.0,KZ,1698031599
326,vila velha,-20.3297,-40.2925,19.97,100,100,0.0,BR,1698031369
327,newman,37.3138,-121.0208,17.86,79,39,2.84,US,1698031602
328,papao,-17.75,-149.55,27.82,77,28,5.84,PF,1698031603
329,revda,56.801,59.9303,-2.58,83,100,5.56,RU,1698031605
330,howard springs,-12.497,131.047,33.26,64,2,2.69,AU,1698031607
331,gandi,12.9636,5.7434,25.29,18,1,3.35,NG,1698031608
332,lagunas,-5.2269,-75.6753,23.7,92,85,0.76,PE,1698031610
333,rikaze,29.25,88.8833,4.59,34,0,1.4,CN,1698031611
334,holmsund,63.706,20.3641,-1.03,68,0,2.24,SE,1698031613
335,kavieng,-2.5744,150.7967,29.46,69,94,4.44,PG,1698031614
336,puerto penasco,31.3167,-113.5333,27.17,88,0,3.66,MX,1698031563
337,seme,15.1942,-12.9448,30.33,37,93,2.12,SN,1698031617
338,moranbah,-22.0016,148.0466,35.4,19,54,3.31,AU,1698031618
339,louhans,46.6667,5.1667,8.45,98,85,1.1,FR,1698031620
340,medina de pomar,42.9294,-3.488,11.96,94,100,1.29,ES,1698031621
341,licheng,23.2955,113.8284,24.49,69,92,1.59,CN,1698031622
342,kuvshinovo,57.0295,34.1725,2.3,99,100,2.13,RU,1698031623
343,marovoay,-16.1,46.6333,25.73,81,5,1.25,MG,1698031625
344,taltal,-25.4,-70.4833,16.88,78,50,1.36,CL,1698031626
345,sinabang,2.4803,96.3801,27.08,77,100,1.58,ID,1698031627
346,copala,16.65,-98.9833,25.41,85,100,1.59,MX,1698031628
347,callao,-12.0667,-77.15,20.4,77,0,5.66,PE,1698031630
348,fort mcmurray,56.7268,-111.381,-3.27,50,100,2.57,CA,1698031631
349,coahuayana de hidalgo,18.7,-103.6583,24.38,89,80,1.41,MX,1698031633
350,malango,-2.9627,119.9001,30.47,43,16,1.93,ID,1698031634
351,west bay,19.3667,-81.4167,28.04,88,20,2.06,KY,1698031635
352,starozhilovo,54.2254,39.916,4.47,94,99,5.18,RU,1698031636
353,noumea,-22.2763,166.4572,27.99,99,53,8.97,NC,1698031553
354,misratah,32.3754,15.0925,23.14,76,1,4.78,LY,1698031639
355,ghadamis,30.1337,9.5007,26.89,21,0,3.61,LY,1698031640
356,imbituba,-28.24,-48.6703,18.32,94,89,4.74,BR,1698031641
357,ulladulla,-35.35,150.4667,25.98,42,6,5.3,AU,1698031643
358,mlowo,-9.0,32.9833,17.31,61,5,0.3,TZ,1698031644
359,barika,35.389,5.3658,19.01,34,1,2.57,DZ,1698031645
360,chany,55.3121,76.7647,-1.78,81,100,10.19,RU,1698031647
361,pyhaselka,62.4333,29.9667,-1.45,88,99,1.5,FI,1698031648
362,sao jose da coroa grande,-8.8978,-35.1478,24.44,78,13,3.73,BR,1698031649
363,fortuna,40.5982,-124.1573,14.96,95,100,4.12,US,1698031650
364,malanje,-9.5402,16.341,18.55,97,95,1.66,AO,1698031651
365,guneysu,40.9776,40.6136,18.74,53,14,3.33,TR,1698031653
366,manjeshvar,12.7,74.8833,26.66,80,38,2.21,IN,1698031654
367,polyarnyy,69.1989,33.4478,0.65,78,100,8.67,RU,1698031655
368,cooper's town,26.8667,-77.5167,26.19,65,100,1.96,BS,1698031657
369,mahdia,35.5047,11.0622,20.97,86,0,3.66,TN,1698031658
370,obanazawa,38.6033,140.4019,18.09,71,89,2.05,JP,1698031659
371,cayon,17.35,-62.7333,27.74,89,75,4.63,KN,1698031660
372,alliance,40.9153,-81.1059,3.49,92,2,2.46,US,1698031662
373,susuman,62.7833,148.1667,-10.47,92,85,0.8,RU,1698031663
374,tazacorte,28.629,-17.9293,20.54,56,0,1.54,ES,1698031665
375,konarka,19.9,86.1167,27.22,73,96,8.37,IN,1698031666
376,morehead city,34.7229,-76.726,16.66,73,0,4.12,US,1698031423
377,northam,51.0333,-4.2167,13.14,95,99,4.62,GB,1698031669
378,uglegorsk,49.0833,142.0333,5.97,50,30,6.18,RU,1698031670
379,kununurra,-15.7667,128.7333,36.99,30,0,3.6,AU,1698031672
380,eureka,40.8021,-124.1637,15.93,94,98,1.34,US,1698031673
381,khor,47.8861,134.9464,9.08,37,0,5.46,RU,1698031674
382,piacabucu,-10.4056,-36.4344,23.69,82,31,3.65,BR,1698031675
383,broken hill,-31.95,141.4333,22.34,22,0,1.25,AU,1698031677
384,hargeysa,9.56,44.065,18.96,62,30,1.66,SO,1698031679
385,vidyayevo,69.3191,32.8049,-0.15,84,100,6.75,RU,1698031680
386,tuban,-6.8976,112.0649,31.13,56,100,3.13,ID,1698031681
387,pisco,-13.7,-76.2167,20.01,94,0,5.14,PE,1698031682
388,jilib,0.4883,42.7854,23.54,89,19,0.62,SO,1698031684
389,qaisumah,28.3112,46.1273,22.98,31,0,1.54,SA,1698031686
390,barranca,-10.75,-77.7667,19.64,89,71,4.27,PE,1698031457
391,katsuren-haebaru,26.3369,127.8719,29.21,54,40,5.66,JP,1698031688
392,el granada,37.5027,-122.4694,17.94,92,100,3.09,US,1698031691
393,harstad,68.799,16.5293,-0.21,87,10,4.92,NO,1698031692
394,joshimath,30.5667,79.5667,14.83,44,87,0.62,IN,1698031694
395,ust-tsilma,65.441,52.1498,-0.94,88,100,5.25,RU,1698031695
396,fale old settlement,-9.3852,-171.2468,28.96,69,43,3.25,TK,1698031697
397,santa rosa,14.3122,121.1114,28.38,86,100,3.21,PH,1698031562
398,el calafate,-50.3408,-72.2768,7.32,80,1,1.78,AR,1698031699
399,robore,-18.3333,-59.75,29.55,33,45,1.75,BO,1698031701
400,la paz,-16.5,-68.15,10.32,69,40,2.06,BO,1698031702
401,touros,-5.1989,-35.4608,24.38,83,95,4.18,BR,1698031704
402,queenstown,-31.8976,26.8753,8.42,86,88,1.23,ZA,1698031705
403,hobyo,5.3505,48.5268,27.74,78,95,6.65,SO,1698031707
404,ingeniero jacobacci,-41.3427,-69.5448,12.68,68,85,5.51,AR,1698031708
405,xichang,27.8964,102.2634,17.78,67,5,1.15,CN,1698031709
406,saurimo,-9.6608,20.3916,18.68,87,99,1.37,AO,1698031711
407,colonia general alfredo stroessner,-25.3667,-55.7,23.16,56,94,1.92,PY,1698031712
408,ponta delgada,37.7333,-25.6667,16.77,77,20,2.57,PT,1698031713
409,houghton,47.1219,-88.569,7.68,88,40,0.45,US,1698031500
410,brisas de zicatela,15.8369,-97.0419,27.29,61,0,1.03,MX,1698031716
411,severo-yeniseyskiy,60.3725,93.0408,0.25,72,100,3.65,RU,1698031718
412,girifalco,38.8243,16.4241,15.49,82,40,2.06,IT,1698031719
413,saynshand,44.8824,110.1163,11.31,26,25,3.13,MN,1698031720
414,kudahuvadhoo,2.6708,72.8944,27.54,72,99,3.85,MV,1698031722
415,puerto aysen,-45.4,-72.7,6.52,94,0,0.99,CL,1698031724
416,hilton head island,32.2163,-80.7526,17.21,78,0,0.0,US,1698031658
417,mokhsogollokh,61.4681,128.9203,-3.46,87,100,1.23,RU,1698031516
418,bayanhongor,46.7167,100.1167,4.33,34,18,0.43,MN,1698031728
419,ebon,4.582,168.6964,28.74,73,100,2.08,MH,1698031730
420,mchinji,-13.7984,32.8802,22.32,61,100,1.81,MW,1698031731
421,ustka,54.5805,16.8619,8.14,89,9,4.72,PL,1698031732
422,taoudenni,22.6783,-3.9836,31.42,17,99,1.48,ML,1698031733
423,severobaykal'sk,55.65,109.3167,1.99,48,72,1.21,RU,1698031735
424,aripuana,-9.1667,-60.6333,27.21,47,99,0.66,BR,1698031736
425,yaprakli,40.7579,33.7782,13.29,46,54,1.0,TR,1698031737
426,chahar burj,34.2448,62.1917,15.25,38,2,1.89,AF,1698031738
427,bhimunipatnam,17.8833,83.4333,27.73,52,100,3.3,IN,1698031740
428,maputo,-25.9653,32.5892,16.82,59,20,5.66,MZ,1698031741
429,vermilion,40.1667,-87.7506,8.66,81,0,1.54,US,1698031743
430,fremantle,-32.05,115.7667,21.1,38,88,6.69,AU,1698031744
431,ballynahinch,54.4,-5.8833,4.97,89,100,3.91,GB,1698031745
432,jiuquan,39.7432,98.5174,13.72,19,0,2.18,CN,1698031746
433,al jawf,29.5,38.75,21.48,42,7,2.74,SA,1698031748
434,karmala,18.4167,75.2,26.04,45,62,0.23,IN,1698031749
435,carbonear,47.7332,-53.2148,9.12,93,100,6.76,CA,1698031750
436,pombal,-6.7703,-37.8017,26.66,58,95,6.84,BR,1698031754
437,codigoro,44.8311,12.1142,11.7,79,5,2.2,IT,1698031755
438,sasayama,35.0667,135.2167,20.73,50,75,1.91,JP,1698031757
439,labuan,5.2767,115.2417,30.2,79,20,1.54,MY,1698031758
440,tafuna,-14.3358,-170.72,28.97,74,75,5.66,AS,1698031759
441,guapore,-28.8456,-51.8903,19.28,99,100,0.63,BR,1698031760
442,jieshi,22.8134,115.8257,25.32,72,64,4.2,CN,1698031762
443,katabu,-4.9333,122.5167,34.31,43,29,0.56,ID,1698031763
444,kodiak,57.79,-152.4072,3.73,60,0,3.09,US,1698031466
445,tucurui,-3.7661,-49.6725,26.09,78,82,2.2,BR,1698031766
446,qui nhon,13.7667,109.2333,28.36,75,77,4.47,VN,1698031767
447,kovylkino,54.0388,43.9139,4.43,72,100,5.2,RU,1698031769
448,colby,39.3958,-101.0524,7.03,61,0,1.54,US,1698031770
449,gueret,46.1667,1.8667,8.17,68,100,1.32,FR,1698031771
450,lata,40.1629,-8.3327,13.37,90,100,0.48,PT,1698031773
451,pechora,65.1472,57.2244,-1.15,88,100,6.45,RU,1698031774
452,ushtobe,45.2514,77.9838,14.22,54,100,8.65,KZ,1698031775
453,itoman,26.1247,127.6694,29.21,61,75,5.66,JP,1698031777
454,betio village,1.358,172.9211,29.02,75,25,1.73,KI,1698031778
455,asau,46.4333,26.4,15.71,79,100,3.0,RO,1698031780
456,sandnessjoen,66.0217,12.6316,-3.71,51,100,4.03,NO,1698031781
457,lazaro cardenas,17.9583,-102.2,25.92,83,100,1.02,MX,1698031782
458,sinaloa de leyva,25.8333,-108.2333,20.75,97,100,4.71,MX,1698031785
459,paracuru,-3.41,-39.0306,26.73,81,78,5.52,BR,1698031543
460,nyuzen,36.9333,137.5,21.93,56,92,2.14,JP,1698031787
461,al hufuf,25.3646,49.5653,23.19,64,0,1.54,SA,1698031789
462,swakopmund,-22.6833,14.5333,12.77,83,0,2.68,NA,1698031790
463,mansa,29.9833,75.3833,23.81,42,0,1.78,IN,1698031791
464,macau,22.2006,113.5461,27.89,78,0,6.17,MO,1698031637
465,nadi,-17.8,177.4167,29.0,70,75,6.69,FJ,1698031794
466,sinop,41.7711,34.8709,18.82,43,98,3.69,TR,1698031796
467,pandaria,22.2333,81.4167,22.68,45,26,1.54,IN,1698031797
468,parola,20.8833,75.1167,27.13,44,70,2.36,IN,1698031798
469,gadzhiyevo,69.2551,33.3362,0.55,76,99,8.79,RU,1698031800
470,malakal,9.5334,31.6605,23.52,89,99,1.96,SS,1698031801
471,el sauce,12.8869,-86.539,23.62,90,57,1.23,NI,1698031805
472,umm kaddadah,13.6017,26.6876,25.77,17,4,5.87,SD,1698031809
473,toliara,-23.35,43.6667,23.28,65,56,2.43,MG,1698031811
474,westport,41.1415,-73.3579,9.2,74,75,3.09,US,1698031732
475,grafton,42.207,-71.6856,8.73,79,0,3.6,US,1698031815
476,serdobsk,52.4586,44.2169,5.66,66,99,6.62,RU,1698031816
477,argo,37.6333,22.7333,20.34,44,26,1.62,GR,1698031817
478,kourou,5.1552,-52.6478,28.03,88,90,4.27,GF,1698031805
479,chivhu,-19.0211,30.8922,18.28,75,81,3.68,ZW,1698031820
480,guercif,34.2257,-3.3536,18.71,72,100,2.09,MA,1698031821
481,gorazde,43.6669,18.9764,11.95,95,70,0.6,BA,1698031822
482,labuan bajo,-8.4964,119.8877,29.57,65,10,2.91,ID,1698031823
483,alterosa,-21.2492,-46.1431,19.33,71,11,2.17,BR,1698031825
484,rio gallegos,-51.6226,-69.2181,6.03,70,0,0.51,AR,1698031826
485,khost,33.3395,69.9204,17.07,62,0,0.15,AF,1698031827
486,yanam,16.7333,82.2167,29.89,52,100,2.21,IN,1698031828
487,tuy hoa,13.0833,109.3,28.21,79,73,4.0,VN,1698031830
488,dhuusamarreeb,5.535,46.3861,25.84,77,63,5.08,SO,1698031833
489,guerrero negro,27.9769,-114.0611,19.38,83,1,8.56,MX,1698031834
490,tyumentsevo,53.3224,81.498,3.15,95,100,10.73,RU,1698031835
491,taesal-li,36.9714,126.4542,17.72,61,20,3.91,KR,1698031837
492,camargo,27.6667,-105.1667,18.65,64,100,3.57,MX,1698031838
493,sitka,57.0531,-135.33,2.94,56,20,3.09,US,1698031839
494,grand-bassam,5.2118,-3.7388,26.98,88,100,2.35,CI,1698031841
495,osorno,-40.5667,-73.15,7.17,81,0,0.51,CL,1698031842
496,la ronge,55.1001,-105.2842,-1.86,59,75,4.12,CA,1698031844
497,brokopondo,4.75,-55.1667,25.81,84,100,2.05,SR,1698031845
498,saldanha,-33.0117,17.9442,12.03,82,96,2.82,ZA,1698031847
499,sidney,-33.8679,151.2073,30.9,33,0,3.6,AU,1698031811
500,tarnogskiy gorodok,60.4997,43.5761,-3.27,79,66,1.85,RU,1698031849
501,shashemene,7.2,38.6,16.03,86,98,0.44,ET,1698031850
502,mushie,-3.0167,16.9,22.57,94,100,1.02,CD,1698031852
503,bac lieu,9.285,105.7244,30.28,68,93,3.17,VN,1698031853
504,mostaganem,35.9311,0.0892,21.19,70,34,3.84,DZ,1698031856
505,buta,2.7858,24.73,20.58,99,90,0.29,CD,1698031857
506,talara,-4.5772,-81.2719,21.14,84,8,6.32,PE,1698031859
507,lompoc,34.6391,-120.4579,18.77,82,93,7.6,US,1698031640
508,manokwari,-0.8667,134.0833,28.34,75,87,1.64,ID,1698031861
509,mastic beach,40.7668,-72.8521,10.08,74,75,3.6,US,1698031864
510,ladario,-19.0047,-57.6017,29.65,42,57,0.87,BR,1698031865
511,pirane,-25.7324,-59.1088,33.55,33,88,4.06,AR,1698031718
512,zaozersk,69.4005,32.4476,-0.52,85,100,6.29,RU,1698031868
513,dunedin,-45.8742,170.5036,12.56,75,74,5.37,NZ,1698031810
514,nsanje,-16.92,35.262,27.86,59,88,1.61,MW,1698031870
515,pangody,65.85,74.4859,-2.68,84,96,5.35,RU,1698031872
516,taroa,8.7058,171.2275,27.85,76,76,5.22,MH,1698031873
517,cotonou,6.3654,2.4183,26.8,84,97,3.8,BJ,1698031874
518,mar del plata,-38.0023,-57.5575,15.05,99,100,3.6,AR,1698031876
519,agua branca,-5.8922,-42.6361,28.63,44,100,2.48,BR,1698031877
520,taulaga,-11.0553,-171.0883,28.77,64,27,2.14,AS,1698031878
521,minas novas,-17.2186,-42.5903,21.07,86,99,2.16,BR,1698031879
522,kralendijk,12.15,-68.2667,27.99,83,85,0.0,BQ,1698031881
523,la cruz,23.9167,-106.9,24.92,86,100,7.98,MX,1698031882
524,mount pearl,47.5166,-52.7813,8.41,95,100,5.66,CA,1698031883
525,bradley gardens,40.5629,-74.6546,10.03,69,40,5.14,US,1698031885
526,pionerskiy,54.9508,20.2275,12.08,90,100,7.95,RU,1698031886
527,maun,-19.9833,23.4167,22.98,16,0,2.57,BW,1698031888
528,tajimi,35.3167,137.1333,22.56,44,53,1.79,JP,1698031889
529,cockburn town,21.4612,-71.1419,28.91,74,3,4.71,TC,1698031763
530,soligalich,59.0778,42.2864,-0.58,98,100,1.22,RU,1698031892
531,porto novo,6.4965,2.6036,25.7,89,100,2.1,BJ,1698031893
532,kolondieba,11.0882,-6.8926,24.5,68,48,1.68,ML,1698031894
533,margate,51.3813,1.3862,13.83,80,59,4.23,GB,1698031853
534,dunlap,41.6378,-85.9217,5.77,100,0,0.0,US,1698031897
535,palapag,12.5458,125.1147,30.12,67,97,2.38,PH,1698031899
536,fuglafjordur,62.244,-6.814,7.26,80,40,8.28,FO,1698031900
537,cestos city,5.46,-9.5828,25.49,88,72,2.08,LR,1698031902
538,omdurman,15.6445,32.4777,29.56,24,49,5.9,SD,1698031903
539,musafir-khana,26.3667,81.8,26.12,49,0,0.98,IN,1698031904
540,hopelchen,19.7667,-89.85,22.57,68,100,1.89,MX,1698031906
541,bamako,12.65,-8.0,22.23,100,20,0.0,ML,1698031909
542,kebili,33.7044,8.969,22.24,47,0,2.73,TN,1698031910
543,tawau,4.2498,117.8871,32.07,66,19,3.58,MY,1698031912
544,klaksvik,62.2266,-6.589,7.51,78,33,9.27,FO,1698031913
545,sosnovo-ozerskoye,52.5249,111.5418,4.67,30,7,5.37,RU,1698031914
546,andergrove,-21.0833,149.1833,33.69,62,2,5.29,AU,1698031916
547,seeb,23.6703,58.1891,27.05,65,0,0.51,OM,1698031917
548,bougouni,11.417,-7.479,24.66,70,66,1.45,ML,1698031919
549,crane,31.3974,-102.3501,21.99,72,100,8.42,US,1698031920
550,waiuku,-37.25,174.75,18.51,65,73,3.21,NZ,1698031922
551,jayapura,-2.5333,140.7,34.66,81,80,4.44,ID,1698031923
552,dame-marie,18.5667,-74.4167,27.52,82,94,5.12,HT,1698031924
553,watsa,3.0372,29.5355,17.23,98,76,1.2,CD,1698031926
554,malangali,-8.5667,34.85,17.54,60,3,3.13,TZ,1698031927
555,novonikolayevskiy,50.9738,42.3649,7.1,82,93,3.58,RU,1698031929
556,tsiombe,-25.3,45.4833,22.81,61,37,4.58,MG,1698031930
557,kawerau,-38.1,176.7,20.83,62,8,1.79,NZ,1698031933
558,oltinko'l,40.8011,72.1634,19.17,43,100,2.96,UZ,1698031935
559,nizhniy lomov,53.5304,43.6766,4.8,74,92,5.57,RU,1698031936
560,datca,36.7378,27.6842,18.19,63,24,3.32,TR,1698031937
561,boguchany,58.3814,97.4531,4.25,60,98,3.75,RU,1698031938
562,dalbandin,28.8947,64.4101,25.9,20,0,1.16,PK,1698031940
563,gilmer,32.7287,-94.9424,22.98,83,0,1.54,US,1698031941
564,ruiz,21.95,-105.15,22.81,95,46,1.67,MX,1698031943
