City_ID,City,Lat,Lng,Max Temp,Humidity,Cloudiness,Wind Speed,Country,Date
0,hamilton,39.1834,-84.5333,23.02,66,99,0.45,US,1698274854
1,kawerau,-38.1,176.7,19.71,74,74,1.34,NZ,1698274946
2,queenstown,-31.8976,26.8753,11.91,86,9,0.69,ZA,1698275088
3,agat village,13.3886,144.6585,30.76,83,75,5.14,GU,1698275089
4,isafjordur,66.0755,-23.124,2.69,90,91,3.14,IS,1698275090
5,tazovsky,67.4667,78.7,-10.1,95,81,2.33,RU,1698275091
6,pacific grove,36.6177,-121.9166,20.39,74,20,4.63,US,1698275092
7,tyukhtet,56.5389,89.3011,4.68,73,99,4.56,RU,1698275093
8,blackmans bay,-43.0167,147.3167,9.18,69,92,0.89,AU,1698275095
9,waitangi,-43.9535,-176.5597,12.56,91,8,7.57,NZ,1698275096
10,sao joao da barra,-21.6403,-41.0511,24.05,96,100,3.32,BR,1698275097
11,west island,-12.1568,96.8225,25.99,83,75,7.2,CC,1698275098
12,wotho,10.1657,166.0102,28.35,81,31,5.97,MH,1698275099
13,newman,37.3138,-121.0208,24.13,50,58,4.92,US,1698275100
14,ushuaia,-54.8,-68.3,4.81,81,75,10.29,AR,1698275101
15,yellowknife,62.456,-114.3525,-1.44,92,75,4.63,CA,1698275060
16,bilibino,68.0546,166.4372,-14.15,98,90,1.09,RU,1698275106
17,qinnan,33.2531,119.9133,17.43,71,3,1.89,CN,1698275107
18,point pedro,9.8167,80.2333,26.83,76,69,1.81,LK,1698275109
19,mont-dore,-22.2833,166.5833,27.99,90,90,3.62,NC,1698275110
20,port mathurin,-19.6833,63.4167,24.67,78,6,7.31,MU,1698275111
21,puerto natales,-51.7236,-72.4875,2.17,99,100,1.64,CL,1698274890
22,port-aux-francais,-49.35,70.2167,4.47,93,100,0.93,TF,1698275113
23,sulya,12.5667,75.3833,21.58,85,52,1.11,IN,1698275115
24,sinabang,2.4803,96.3801,25.46,83,84,1.14,ID,1698275116
25,kailua-kona,19.6406,-155.9956,30.33,73,20,4.12,US,1698275118
26,lebu,-37.6167,-73.65,11.25,83,0,10.34,CL,1698275119
27,kearney,40.6995,-99.0815,14.38,97,100,1.84,US,1698275121
28,quepos,9.4236,-84.1652,25.97,88,100,2.28,CR,1698275123
29,iqaluit,63.7506,-68.5145,-10.15,78,75,2.57,CA,1698275124
30,touros,-5.1989,-35.4608,24.79,78,22,5.37,BR,1698275125
31,antunez,19.0167,-102.2,28.98,71,100,2.39,MX,1698275126
32,papatowai,-46.5619,169.4708,7.36,94,79,8.1,NZ,1698275127
33,lapinlahti,65.5833,30.5667,-3.17,82,17,1.8,RU,1698275129
34,olonkinbyen,70.9221,-8.7187,0.53,79,100,4.82,SJ,1698275130
35,st. john's,47.5649,-52.7093,10.44,88,75,6.17,CA,1698275131
36,ancud,-41.8697,-73.8203,10.71,81,70,4.3,CL,1698275133
37,carhaix-plouguer,48.2759,-3.5733,11.97,90,100,5.13,FR,1698275134
38,alice springs,-23.7,133.8833,16.75,22,0,8.75,AU,1698275136
39,adamstown,-25.066,-130.1015,22.77,82,62,7.01,PN,1698275137
40,talnakh,69.4865,88.3972,-8.77,95,100,0.55,RU,1698275139
41,albany,42.6001,-73.9662,18.36,69,95,1.21,US,1698275039
42,utrik,11.2278,169.8474,27.4,71,52,4.01,MH,1698275141
43,georgetown,5.4112,100.3354,26.12,92,20,1.54,MY,1698274892
44,lata,40.1629,-8.3327,19.49,95,100,3.58,PT,1698275143
45,haiku-pauwela,20.9219,-156.3051,29.54,63,20,5.66,US,1698275144
46,edinburgh of the seven seas,-37.0676,-12.3116,11.0,56,44,6.03,SH,1698275147
47,aasiaat,68.7098,-52.8699,-9.79,81,95,3.79,GL,1698275148
48,buka,40.8108,69.1986,19.52,28,100,3.23,UZ,1698275149
49,bethel,41.3712,-73.414,18.05,68,61,0.45,US,1698275088
50,rong'an,26.1247,119.1214,20.66,92,57,0.41,CN,1698275151
51,tolanaro,-25.0319,46.9987,22.04,83,20,3.09,MG,1698275153
52,luderitz,-26.6481,15.1594,16.12,84,1,2.41,NA,1698275154
53,klyuchi,52.2667,79.1667,12.16,59,100,7.88,RU,1698275155
54,dazhong,33.1997,120.4578,16.98,79,3,2.23,CN,1698275156
55,kruisfontein,-34.0033,24.7314,13.94,84,82,2.31,ZA,1698275158
56,udachny,66.4167,112.4,-16.3,97,38,3.13,RU,1698275159
57,bredasdorp,-34.5322,20.0403,13.88,88,100,0.76,ZA,1698275160
58,la spezia,44.1105,9.8434,20.6,75,100,0.45,IT,1698275161
59,kingston,17.997,-76.7936,25.53,91,75,3.13,JM,1698275035
60,inari,68.906,27.0288,-2.89,91,99,3.81,FI,1698275163
61,andergrove,-21.0833,149.1833,28.69,65,4,1.67,AU,1698275166
62,jamestown,42.097,-79.2353,18.8,45,100,3.6,US,1698274999
63,devoto,-31.4043,-62.3063,18.52,64,16,3.4,AR,1698275170
64,sao tome,0.3365,6.7273,25.58,85,100,3.18,ST,1698275171
65,port elizabeth,-33.918,25.5701,17.16,88,0,4.63,ZA,1698275172
66,remire-montjoly,4.9167,-52.2667,28.02,78,0,3.6,GF,1698275174
67,puerto ayora,-0.7393,-90.3518,27.98,85,96,4.79,EC,1698275179
68,kyren,51.6828,102.1408,2.19,65,66,0.89,RU,1698275182
69,opuwo,-18.0607,13.84,20.26,39,4,2.26,NA,1698275183
70,laguna,38.421,-121.4238,19.5,48,75,2.06,US,1698275185
71,egilsstadir,65.2653,-14.3948,-0.05,93,75,0.51,IS,1698275186
72,nova vicosa,-17.8919,-39.3719,25.82,83,45,4.7,BR,1698275187
73,stanley,54.868,-1.6985,9.74,95,100,3.6,GB,1698275059
74,saint-philippe,-21.3585,55.7679,23.77,83,6,2.97,RE,1698275189
75,baiti,13.745,-14.7482,27.47,67,80,3.45,SN,1698275191
76,bath,51.3779,-2.3591,11.32,94,100,2.05,GB,1698275193
77,lauro de freitas,-12.8944,-38.3272,27.01,78,40,7.2,BR,1698275195
78,ponnani,10.767,75.9252,24.62,90,42,1.89,IN,1698275196
79,troitsko-pechorsk,62.7084,56.1964,-6.84,94,66,2.24,RU,1698275198
80,port shepstone,-30.7414,30.455,17.96,82,43,3.27,ZA,1698275199
81,glace bay,46.1969,-59.957,13.27,87,75,7.72,CA,1698275200
82,island harbour,50.724,-1.2758,12.74,93,100,3.54,GB,1698275201
83,geraldton,-28.7667,114.6,14.23,94,26,3.09,AU,1698275202
84,margaret river,-33.95,115.0667,16.44,73,86,4.19,AU,1698275204
85,tiksi,71.6872,128.8694,-11.91,92,96,1.63,RU,1698275205
86,pisco,-13.7,-76.2167,20.03,83,100,1.54,PE,1698275206
87,college,64.8569,-147.8028,2.11,76,40,3.09,US,1698275207
88,vorkuta,67.5,64.0,-18.37,99,100,1.16,RU,1698275208
89,avarua,-21.2078,-159.775,22.03,60,75,6.17,CK,1698275210
90,tura,25.5198,90.2201,18.89,93,0,0.81,IN,1698275211
91,arauco,-37.2463,-73.3175,13.56,67,0,4.87,CL,1698275212
92,port lincoln,-34.7333,135.8667,13.62,51,6,6.26,AU,1698275074
93,esplanada,-11.7961,-37.945,23.57,82,54,4.51,BR,1698275107
94,east london,-33.0153,27.9116,17.33,81,49,6.1,ZA,1698275216
95,invercargill,-46.4,168.35,10.01,79,72,10.73,NZ,1698275217
96,dalnegorsk,44.5604,135.5701,10.33,71,89,0.89,RU,1698275218
97,whitehorse,60.7161,-135.0538,0.05,63,75,4.12,CA,1698275155
98,uturoa,-16.7333,-151.4333,26.82,75,97,3.34,PF,1698275221
99,kourou,5.1552,-52.6478,28.03,79,80,5.41,GF,1698275222
100,arraial do cabo,-22.9661,-42.0278,22.17,93,64,2.16,BR,1698275224
101,fort bragg,35.139,-79.006,21.56,77,0,1.43,US,1698275225
102,mbandaka,0.0487,18.2603,22.04,98,95,2.24,CD,1698275226
103,saipan,15.1355,145.701,28.39,89,75,4.63,MP,1698275227
104,borogontsy,62.6683,131.1683,-8.86,95,100,1.81,RU,1698275228
105,kapa'a,22.0752,-159.319,28.04,67,100,4.63,US,1698275230
106,grytviken,-54.2811,-36.5092,0.72,81,54,6.24,GS,1698275231
107,palmer,42.1584,-72.3287,18.15,65,75,3.09,US,1698275232
108,viedma,-40.8135,-62.9967,14.94,56,0,5.2,AR,1698275233
109,corralejo,28.7424,-13.8684,23.06,76,20,6.51,ES,1698275234
110,codrington,-38.2667,141.9667,11.55,68,89,6.19,AU,1698275235
111,kupang,-10.1667,123.5833,25.32,73,20,2.06,ID,1698275237
112,laojunmiao,39.8333,97.7333,5.43,30,0,1.71,CN,1698275238
113,puerto ayacucho,5.6639,-67.6236,26.14,87,74,1.67,VE,1698275239
114,manokwari,-0.8667,134.0833,27.81,71,97,2.49,ID,1698275240
115,atafu village,-8.5421,-172.5159,28.33,77,57,5.89,TK,1698275242
116,galesong,-5.3166,119.3661,21.01,47,16,1.95,ID,1698275243
117,vilyuchinsk,52.9306,158.4028,4.96,65,49,8.98,RU,1698275244
118,jining,35.405,116.5814,16.16,59,33,0.42,CN,1698275245
119,ar rutbah,33.0381,40.2848,19.62,61,0,3.63,IQ,1698275239
120,kishtwar,33.3167,75.7667,8.31,42,0,2.35,IN,1698275185
121,baihe,22.15,107.2333,22.1,85,72,0.78,CN,1698275249
122,rikaze,29.25,88.8833,0.04,53,27,1.22,CN,1698275250
123,vadso,70.0744,29.7487,-1.91,80,75,6.17,NO,1698275000
124,anadyr,64.75,177.4833,3.28,100,100,11.0,RU,1698275254
125,osorno,-40.5667,-73.15,14.03,77,8,3.03,CL,1698275255
126,papao,-17.75,-149.55,26.82,75,100,2.5,PF,1698275256
127,bryne,58.7354,5.6477,7.77,68,20,7.72,NO,1698275017
128,igarka,67.4667,86.5833,-9.48,98,94,1.23,RU,1698275258
129,hawaiian paradise park,19.5933,-154.9731,28.83,80,11,1.34,US,1698274973
130,porto novo,6.4965,2.6036,25.8,90,97,2.78,BJ,1698275261
131,karratha,-20.7377,116.8463,31.58,16,1,10.22,AU,1698275262
132,bikenibeu village,1.3673,173.1241,31.98,74,20,2.57,KI,1698275263
133,dudinka,69.4058,86.1778,-8.51,96,100,1.34,RU,1698275265
134,ghadamis,30.1337,9.5007,25.15,31,33,3.05,LY,1698275266
135,lugovoy,42.9472,72.7644,14.73,31,98,3.14,KZ,1698275267
136,sandnessjoen,66.0217,12.6316,1.29,83,100,4.76,NO,1698275268
137,kathu,7.9178,98.3332,29.83,73,57,1.83,TH,1698275270
138,prado,-17.3411,-39.2208,25.49,85,26,7.58,BR,1698274987
139,francisco sa,-16.4758,-43.4883,28.56,43,97,2.44,BR,1698275273
140,fortuna,40.5982,-124.1573,15.19,68,75,4.63,US,1698275274
141,ilulissat,69.2167,-51.1,-2.99,46,75,2.06,GL,1698275275
142,puerto baquerizo moreno,-0.9,-89.6,23.25,83,71,5.58,EC,1698275277
143,katsuren-haebaru,26.3369,127.8719,24.21,78,75,2.57,JP,1698275172
144,torit,4.4133,32.5678,24.67,65,98,0.91,SS,1698275280
145,wuwei,37.9281,102.6414,7.87,50,1,1.08,CN,1698275281
146,illintsi,49.1048,29.2177,12.79,76,95,6.7,UA,1698275282
147,as sulayyil,20.4607,45.5779,23.14,84,63,3.37,SA,1698275284
148,coquimbo,-29.9533,-71.3436,14.44,83,33,1.91,CL,1698275285
149,fort st. john,56.2499,-120.8529,-4.07,61,100,1.02,CA,1698275287
150,petropavlovsk-kamchatsky,53.0452,158.6483,4.14,78,75,2.68,RU,1698275288
151,qaqortoq,60.7167,-46.0333,0.69,77,100,2.4,GL,1698275289
152,portland,45.5234,-122.6762,10.88,86,75,5.14,US,1698274735
153,necochea,-38.5473,-58.7368,9.43,75,5,4.68,AR,1698275292
154,madinat ash shamal,26.1293,51.2009,28.98,60,0,4.34,QA,1698275293
155,fale old settlement,-9.3852,-171.2468,28.26,78,74,7.28,TK,1698275294
156,jinchang,38.4953,102.1739,8.3,35,0,1.24,CN,1698275296
157,susuman,62.7833,148.1667,-22.14,99,82,0.3,RU,1698275297
158,petrolina,-9.3986,-40.5008,30.03,45,0,1.03,BR,1698275298
159,nar'yan-mar,67.6713,53.087,-3.83,87,100,3.58,RU,1698275299
160,peace river,56.2501,-117.286,-2.65,61,100,1.75,CA,1698275301
161,baglung,28.2719,83.5898,13.44,47,0,3.21,NP,1698275302
162,alofi,-19.0595,-169.9187,24.94,65,75,7.2,NU,1698275303
163,bardai,11.65,7.2333,23.42,26,100,0.95,NG,1698275305
164,aioun,16.6614,-9.6149,32.24,14,35,3.55,MR,1698275306
165,tinogasta,-28.0632,-67.5649,19.3,59,1,2.68,AR,1698275307
166,broome,42.2506,-75.833,17.43,99,81,2.03,US,1698275308
167,punta arenas,-53.15,-70.9167,5.06,87,75,8.75,CL,1698274840
168,saint-joseph,-21.3667,55.6167,25.26,81,4,1.41,RE,1698275311
169,kramfors,62.9316,17.7765,-0.12,93,100,1.54,SE,1698275189
170,sal rei,16.1833,-22.9167,27.06,75,38,6.84,CV,1698275313
171,quartu sant'elena,39.2419,9.1839,20.04,85,40,1.03,IT,1698275315
172,kalabo,-14.97,22.6814,25.31,40,64,0.97,ZM,1698275316
173,okoneshnikovo,54.8377,75.0834,8.62,81,100,8.23,RU,1698275317
174,sangmelima,2.9333,11.9833,19.53,99,96,1.12,CM,1698275318
175,port alfred,-33.5906,26.891,16.21,88,38,1.34,ZA,1698275319
176,kapuskasing,49.4169,-82.4331,2.05,100,100,3.09,CA,1698275320
177,puerto cabezas,14.0351,-83.3888,27.41,85,99,3.71,NI,1698275321
178,mantua,45.1667,10.7833,14.58,76,100,0.74,IT,1698275322
179,kone,-21.0595,164.8658,24.52,81,98,2.43,NC,1698275113
180,mammoth lakes,37.6485,-118.9721,13.4,34,100,8.75,US,1698275325
181,enewetak,11.3474,162.3373,28.81,77,100,4.65,MH,1698275329
182,tamanrasset,22.785,5.5228,21.95,17,0,1.54,DZ,1698275330
183,lihue,21.9789,-159.3672,27.63,67,100,4.63,US,1698275331
184,paoua,7.2427,16.4406,21.98,90,95,1.63,CF,1698275332
185,copala,16.65,-98.9833,27.62,83,100,3.96,MX,1698275333
186,bhimunipatnam,17.8833,83.4333,25.16,80,57,1.58,IN,1698275335
187,valparaiso,-33.0393,-71.6273,12.8,87,75,4.12,CL,1698275336
188,vorgashor,67.5833,63.95,-17.56,99,100,1.22,RU,1698275337
189,mount pearl,47.5166,-52.7813,9.98,89,75,6.17,CA,1698275192
190,kabalo,-6.05,26.9167,22.52,84,73,0.55,CD,1698275339
191,kanye,-24.9667,25.3327,21.79,9,0,3.19,BW,1698275340
192,kavieng,-2.5744,150.7967,26.97,79,100,3.41,PG,1698275342
193,san patricio,28.017,-97.5169,29.4,69,65,7.23,US,1698275343
194,leh,34.1667,77.5833,0.13,37,0,1.8,IN,1698275308
195,wailua homesteads,22.0669,-159.378,27.29,70,100,4.63,US,1698275345
196,parscov,45.2833,26.55,15.45,69,94,2.11,RO,1698275347
197,sarangani,5.4033,125.4636,28.3,75,100,5.29,PH,1698275348
198,poronaysk,49.2167,143.1167,7.78,84,100,3.06,RU,1698275349
199,haenam,34.5711,126.5989,16.65,90,93,0.7,KR,1698275350
200,guanica,17.9716,-66.908,27.84,59,44,2.27,PR,1698275351
201,luancheng,37.8792,114.6517,14.98,32,0,3.93,CN,1698275352
202,kodiak,57.79,-152.4072,7.73,66,75,5.66,US,1698275353
203,nagqu,31.5,92.0,-4.82,90,100,0.46,CN,1698275356
204,waingapu,-9.6567,120.2641,27.29,61,9,0.5,ID,1698275357
205,macapa,0.0389,-51.0664,29.99,66,0,4.63,BR,1698275082
206,shido,34.3233,134.1733,14.76,72,0,1.79,JP,1698275360
207,pathein,16.7833,94.7333,23.95,94,87,1.37,MM,1698275361
208,dunedin,-45.8742,170.5036,17.53,48,80,5.76,NZ,1698275340
209,nemuro,43.3236,145.575,12.84,77,3,0.82,JP,1698275364
210,lithgow,-33.4833,150.15,9.25,72,40,2.66,AU,1698275365
211,gisborne,-38.6533,178.0042,20.71,56,11,5.62,NZ,1698275367
212,great falls,47.5002,-111.3008,-7.96,81,100,1.54,US,1698275369
213,severnoye,56.3491,78.3619,5.55,76,100,6.26,RU,1698275371
214,hasaki,35.7333,140.8333,15.16,62,3,6.37,JP,1698275372
215,mejit,10.2753,170.8646,28.1,75,56,4.2,MH,1698275379
216,rouissat,31.9243,5.3502,24.8,37,0,1.7,DZ,1698275266
217,west end,26.6833,-78.9667,24.99,65,62,11.56,BS,1698275393
218,merizo village,13.2658,144.6691,30.55,86,100,3.62,GU,1698275394
219,hermanus,-34.4187,19.2345,15.6,81,100,3.17,ZA,1698275395
220,puerto armuelles,8.2833,-82.8667,27.87,84,100,0.45,PA,1698275397
221,altai,46.3722,96.2583,2.18,20,2,2.32,MN,1698275398
222,huilong,31.8111,121.655,18.29,85,22,1.05,CN,1698275399
223,quellon,-43.1167,-73.6167,10.66,76,77,1.26,CL,1698275230
224,thompson,55.7435,-97.8558,-1.91,64,75,4.12,CA,1698275295
225,ust-nera,64.5667,143.2,-22.24,98,89,1.27,RU,1698275403
226,puerto deseado,-47.7503,-65.8938,18.01,30,14,8.45,AR,1698275404
227,hithadhoo,-0.6,73.0833,27.73,77,49,7.07,MV,1698275405
228,okhotsk,59.3833,143.3,-10.77,80,24,5.4,RU,1698275407
229,flying fish cove,-10.4217,105.6791,25.82,83,100,4.12,CX,1698275409
230,bom jesus,-9.0744,-44.3586,29.49,45,58,1.46,BR,1698275410
231,mpulungu,-8.7623,31.1141,25.71,61,91,0.73,ZM,1698275411
232,tanjung pandan,-2.75,107.65,25.19,85,15,2.61,ID,1698275413
233,isla vista,34.4133,-119.861,23.47,73,40,4.63,US,1698275414
234,kongsvinger,60.1905,11.9977,1.37,88,99,2.51,NO,1698275415
235,westport,41.1415,-73.3579,19.36,75,0,2.06,US,1698275381
236,bagan,54.1001,77.6646,10.19,74,100,8.14,RU,1698275417
237,nova sintra,14.8667,-24.7167,24.23,75,80,6.8,CV,1698275418
238,luau,-10.7073,22.2247,19.71,90,100,1.9,AO,1698275420
239,bima,-8.4667,118.7167,27.24,67,13,1.59,ID,1698275421
240,saint croix,17.7397,-64.7388,27.25,85,20,2.06,VI,1698275422
241,iskateley,67.6803,53.1512,-3.88,87,100,3.58,RU,1698275423
242,longyearbyen,78.2186,15.6401,-6.09,79,0,4.12,SJ,1698275424
243,toliara,-23.35,43.6667,23.96,88,53,4.99,MG,1698275426
244,shingu,33.7333,135.9833,16.07,71,0,2.09,JP,1698275427
245,mohr,54.3528,9.7167,10.08,94,100,4.12,DE,1698275428
246,tindouf,27.6711,-8.1474,22.27,21,0,2.31,DZ,1698275429
247,otelu rosu,45.5333,22.3667,16.91,58,100,1.55,RO,1698275430
248,kuressaare,58.2481,22.5039,3.3,86,100,8.49,EE,1698275432
249,chonchi,-42.6128,-73.8092,13.56,77,68,1.65,CL,1698275433
250,kharkhorin,47.1975,102.8238,4.82,24,3,3.68,MN,1698275434
251,acapulco de juarez,16.8634,-99.8901,27.76,80,97,2.54,MX,1698275435
252,saudarkrokur,65.7461,-19.6394,1.19,81,80,2.33,IS,1698275436
253,naryn,41.4287,75.9911,5.27,50,68,3.16,KG,1698275437
254,sao gabriel da cachoeira,-0.1303,-67.0892,28.4,65,82,0.65,BR,1698275402
255,illizi,26.4833,8.4667,27.1,18,100,0.71,DZ,1698275440
256,guerrero negro,27.9769,-114.0611,21.16,62,0,6.83,MX,1698275441
257,mahibadhoo,3.7833,72.9667,27.62,78,49,4.82,MV,1698275442
258,antsiranana,-12.2787,49.2917,23.98,89,97,4.37,MG,1698275443
259,eastham,41.8301,-69.9739,16.73,76,0,5.14,US,1698275444
260,yamada,39.4667,141.95,15.46,77,28,2.43,JP,1698275445
261,ta khmau,11.4833,104.95,27.03,100,75,2.57,KH,1698275447
262,vila franca do campo,37.7167,-25.4333,22.16,99,93,3.53,PT,1698275448
263,acarau,-2.8856,-40.12,25.64,80,18,6.99,BR,1698275449
264,ponta delgada,37.7333,-25.6667,22.33,94,75,8.23,PT,1698275451
265,coahuayana de hidalgo,18.7,-103.6583,27.93,74,100,1.97,MX,1698275452
266,digapahandi,19.3667,84.5833,23.46,86,61,0.87,IN,1698275453
267,melioratorov,57.2107,65.6077,-3.79,86,75,5.0,RU,1698275454
268,selty,57.3132,52.1345,-8.04,97,39,2.31,RU,1698275456
269,istgah-e rah ahan-e garmsar,35.2346,52.3094,19.09,36,49,1.29,IR,1698275457
270,nuuk,64.1835,-51.7216,1.34,64,75,4.12,GL,1698275458
271,klaksvik,62.2266,-6.589,9.51,89,85,9.43,FO,1698275459
272,nyandoma,61.669,40.1991,-4.06,97,80,1.76,RU,1698275460
273,kalmunai,7.4167,81.8167,25.07,85,23,1.14,LK,1698275461
274,padre paraiso,-17.0742,-41.4844,25.4,52,81,3.13,BR,1698275463
275,ust'-ilimsk,58.0006,102.6619,1.36,52,100,4.47,RU,1698275464
276,rongelap,11.1635,166.8941,28.09,75,75,6.15,MH,1698275465
277,ola,59.5833,151.2833,-8.81,66,2,3.34,RU,1698275466
278,vikhorevka,56.1201,101.1636,2.77,92,100,2.55,RU,1698275467
279,ramos arizpe,25.55,-100.9667,27.45,57,54,3.69,MX,1698275469
280,fada,9.5667,8.3,21.24,79,96,0.83,NG,1698275470
281,kaliua,-5.0606,31.7936,20.05,84,92,2.38,TZ,1698275471
282,aykhal,66.0,111.5,-15.14,100,98,3.7,RU,1698275472
283,antofagasta,-23.65,-70.4,16.39,78,38,3.05,CL,1698275473
284,ribeira grande,38.5167,-28.7,18.21,79,100,4.47,PT,1698275474
285,urbano santos,-3.2078,-43.4036,25.22,76,38,3.06,BR,1698275476
286,berdigestyakh,62.0989,126.6992,-13.94,100,97,1.29,RU,1698275477
287,gandajika,-6.75,23.95,21.53,87,97,0.83,CD,1698275478
288,petrovsk-zabaykal'skiy,51.273,108.843,-3.33,76,98,1.29,RU,1698275479
289,levuka,50.1834,-105.4011,-5.78,81,100,3.42,CA,1698275481
290,shar'ya,58.3686,45.5144,-2.79,85,97,1.79,RU,1698275483
291,pointe-noire,-4.7761,11.8635,25.04,94,75,2.57,CG,1698275484
292,babu,24.4167,111.5167,23.03,86,11,0.68,CN,1698275485
293,lompoc,34.6391,-120.4579,23.34,69,14,7.15,US,1698275486
294,sur,22.5667,59.5289,26.14,66,12,4.8,OM,1698275487
295,victorica,-36.2151,-65.4359,20.34,35,80,2.98,AR,1698275489
296,bucerias,20.75,-105.3333,29.99,62,75,1.54,MX,1698275308
297,arkhangel'sk,64.5401,40.5433,1.18,83,68,1.29,RU,1698275491
298,souillac,-20.5167,57.5167,23.21,88,20,1.54,MU,1698275492
299,jaciara,-15.9653,-54.9683,25.88,66,100,0.85,BR,1698275493
300,new ulm,44.3125,-94.4605,13.02,93,100,0.0,US,1698275495
301,bois-guillaume,49.4602,1.1222,10.37,91,0,2.57,FR,1698275496
302,la sarre,48.8002,-79.1996,5.51,93,100,1.97,CA,1698275497
303,khandyga,62.6667,135.6,-13.85,88,100,1.24,RU,1698275499
304,villa gesell,-37.2639,-56.973,10.8,72,0,4.06,AR,1698275500
305,cartagena,10.3997,-75.5144,27.79,83,20,2.06,CO,1698275402
306,kayangel,8.0823,134.7173,28.75,75,78,3.87,PW,1698275502
307,nogliki,51.8333,143.1667,3.52,64,64,2.24,RU,1698275503
308,gadzhiyevo,69.2551,33.3362,-3.75,86,90,5.12,RU,1698275504
309,ugoofaaru,5.6667,73.0,27.72,75,80,3.04,MV,1698275505
310,carutapera,-1.195,-46.02,26.01,76,73,4.91,BR,1698275507
311,canutama,-6.5339,-64.3831,25.31,84,79,0.9,BR,1698275508
312,carnarvon,-24.8667,113.6333,20.54,76,0,8.44,AU,1698275509
313,suwayr,30.1171,40.3893,20.52,50,0,3.36,SA,1698275510
314,moab,38.5733,-109.5498,23.05,20,0,0.45,US,1698275511
315,aswan,24.0934,32.907,29.43,33,0,3.51,EG,1698275512
316,rawson,-43.3002,-65.1023,20.46,23,2,4.54,AR,1698275514
317,bambanglipuro,-7.95,110.2833,24.88,88,10,1.02,ID,1698275515
318,don luan,11.5333,106.9167,24.97,96,22,1.25,VN,1698275516
319,lorengau,-2.0226,147.2712,26.3,82,100,1.44,PG,1698275517
320,recreo,-29.2818,-65.061,19.7,65,98,5.09,AR,1698275518
321,capitao poco,-1.7464,-47.0594,26.39,65,96,4.2,BR,1698275223
322,kumagunnam,13.1551,10.6342,26.82,16,18,4.38,NG,1698275520
323,gustavsberg,59.3268,18.3898,4.43,77,100,6.39,SE,1698275522
324,filey,54.21,-0.2892,10.82,94,100,2.12,GB,1698275523
325,linxia chengguanzhen,35.6003,103.2064,8.03,81,99,1.31,CN,1698275524
326,phek,25.6667,94.5,13.23,99,100,0.34,IN,1698275526
327,mengcheng chengguanzhen,33.2661,116.566,17.03,71,4,2.45,CN,1698275527
328,bryan,30.6744,-96.37,29.37,67,75,3.09,US,1698275529
329,mareeba,-17.0,145.4333,25.82,35,57,0.63,AU,1698275530
330,morehead city,34.7229,-76.726,20.56,81,0,1.54,US,1698275531
331,santa cruz,-17.8,-63.1667,31.03,58,75,3.6,BO,1698275532
332,sola,-13.8833,167.55,26.25,79,98,1.78,VU,1698275533
333,new norfolk,-42.7826,147.0587,10.51,62,81,3.75,AU,1698275535
334,filadelfia,39.9523,-75.1638,20.57,55,38,0.45,US,1698275498
335,bandarbeyla,9.4942,50.8122,27.11,81,99,4.3,SO,1698275537
336,northam,51.0333,-4.2167,12.59,94,100,6.37,GB,1698275538
337,tralee,52.2704,-9.7026,8.84,95,44,2.53,IE,1698275539
338,forest,37.3638,-79.2897,18.47,39,0,0.0,US,1698275540
339,mount gambier,-37.8333,140.7667,11.93,60,70,4.59,AU,1698275541
340,kampung sungai ara,5.327,100.2735,26.11,89,20,0.0,MY,1698275543
341,guarapari,-20.6667,-40.4975,23.27,94,100,4.14,BR,1698275545
342,antalaha,-14.9003,50.2788,23.75,91,81,1.86,MG,1698275546
343,mancio lima,-7.6142,-72.8958,29.08,61,73,1.86,BR,1698275547
344,katsuura,35.1333,140.3,17.75,69,0,4.81,JP,1698275549
345,fernie,49.5,-115.0687,-4.62,62,99,1.85,CA,1698275550
346,constitucion,-35.3333,-72.4167,12.57,78,18,4.27,CL,1698275552
347,al fqih ben calah,32.5009,-6.6906,19.56,47,2,2.24,MA,1698275553
348,dolinsk,47.35,142.8,10.96,88,97,1.44,RU,1698275356
349,yakeshi,49.2833,120.7333,-5.35,43,0,3.62,CN,1698275555
350,badger,64.8,-147.5333,2.06,79,75,3.09,US,1698275556
351,murzuq,25.9155,13.9184,25.05,23,100,2.35,LY,1698275558
352,lucapa,-8.4192,20.7447,18.63,96,100,2.7,AO,1698275560
353,chos malal,-37.3781,-70.2709,21.07,20,0,1.9,AR,1698275561
354,la passe,45.5549,-0.8967,18.13,86,100,8.39,FR,1698275563
355,crucecita,-28.95,-58.9833,18.14,75,51,2.72,AR,1698275565
356,kindu,-2.95,25.95,21.09,97,76,0.37,CD,1698275566
357,bratsk,56.1325,101.6142,2.27,86,100,4.51,RU,1698275567
358,kavaratti,10.5669,72.642,28.04,70,8,0.42,IN,1698275568
359,bereeda,11.8704,51.0579,27.24,80,84,5.07,SO,1698275569
360,kolonia town,6.964,158.206,32.0,70,40,2.06,FM,1698275570
361,korla,41.7597,86.1469,10.13,41,0,1.18,CN,1698275571
362,horta,38.5333,-28.6333,17.79,79,100,4.47,PT,1698275573
363,fisterra,42.9049,-9.2629,19.3,98,100,8.88,ES,1698275574
364,rio grande,-32.035,-52.0986,17.06,77,72,6.73,BR,1698275339
365,homer,59.6425,-151.5483,8.21,59,0,1.54,US,1698275576
366,wafangdian,39.6183,122.0081,10.34,25,2,5.93,CN,1698275406
367,mili,6.0815,171.735,28.47,76,16,4.49,MH,1698275578
368,fougamou,-1.2154,10.5838,22.29,99,100,0.36,GA,1698275579
369,lamu,-2.2717,40.902,27.12,90,100,3.34,KE,1698275580
370,shiyan,32.6475,110.7781,15.85,71,99,2.34,CN,1698275582
371,plettenberg bay,-34.0527,23.3716,15.23,83,95,1.17,ZA,1698275583
372,luchegorsk,46.4764,134.2569,7.58,79,95,1.55,RU,1698275415
373,quang ngai,15.1167,108.8,23.98,92,57,1.74,VN,1698275586
374,novo aripuana,-5.1206,-60.3797,25.34,86,90,1.32,BR,1698275587
375,melfort,52.8667,-104.6177,-4.93,54,6,2.06,CA,1698275588
376,tazacorte,28.629,-17.9293,23.54,87,100,3.6,ES,1698275589
377,antonio enes,-16.2325,39.9086,25.67,80,0,4.23,MZ,1698275590
378,tshikapa,-6.4167,20.8,24.26,82,86,0.83,CD,1698275591
379,oban,56.4127,-5.4706,10.21,81,93,3.7,GB,1698275592
380,prince rupert,54.3161,-130.3201,9.05,39,0,4.12,CA,1698275593
381,brookings,44.3114,-96.7984,10.0,93,100,5.66,US,1698275594
382,gorom-gorom,14.4439,-0.2361,30.49,12,59,4.37,BF,1698275596
383,cankuzo,-3.1333,30.5833,15.86,88,69,1.36,BI,1698275597
384,galle,6.0367,80.217,24.64,86,75,2.33,LK,1698275386
385,nguigmi,14.2495,13.1092,27.37,23,16,4.91,NE,1698275599
386,namibe,-15.1961,12.1522,18.43,83,89,1.36,AO,1698275601
387,usinsk,65.9939,57.5281,-9.96,95,100,4.47,RU,1698275603
388,ad dawadimi,24.5077,44.3924,20.64,38,15,2.97,SA,1698275604
389,happy valley-goose bay,53.3168,-60.3315,6.17,65,75,2.06,CA,1698275605
390,hede,33.7681,120.2517,17.07,71,3,2.71,CN,1698275606
391,ranchettes,41.2186,-104.7903,16.83,44,0,5.81,US,1698275607
392,lai chau,22.3997,103.4517,18.75,92,85,0.93,VN,1698275609
393,mulayjah,27.271,48.4242,23.56,62,74,4.54,SA,1698275610
394,grand forks,47.9417,-97.4337,2.85,80,100,7.2,US,1698275612
395,suixi,33.8907,116.7747,17.31,68,1,1.71,CN,1698275613
396,balqash,46.8481,74.995,10.78,80,94,4.55,KZ,1698275614
397,argo,37.6333,22.7333,22.14,45,100,1.15,GR,1698275615
398,nishinoomote,30.7333,131.0,20.82,58,1,2.19,JP,1698275616
399,san julian,21.0167,-102.1667,21.53,46,100,2.18,MX,1698275427
400,sao vicente,-23.9631,-46.3919,23.1,62,98,2.68,BR,1698275618
401,hiji,33.3667,131.5333,16.38,67,1,1.13,JP,1698275619
402,port blair,11.6667,92.75,26.63,82,91,1.95,IN,1698275620
403,nuku'alofa,-21.1333,-175.2,25.19,61,75,7.2,TO,1698275622
404,mosfellsbaer,64.1667,-21.7,7.03,70,20,2.57,IS,1698275623
405,ironwood,46.4547,-90.171,8.45,87,100,2.06,US,1698275624
406,corner brook,48.9667,-57.9484,7.09,95,100,1.52,CA,1698275625
407,mantyharju,61.4167,26.8833,-2.94,87,17,1.83,FI,1698275626
408,gilgit,35.9221,74.3087,11.16,49,43,1.74,PK,1698275628
409,bubaque,11.2833,-15.8333,28.52,75,100,3.76,GW,1698275631
410,atyrau,47.1167,51.8833,1.01,80,40,3.0,KZ,1698275400
411,yuzhno-kurilsk,44.0306,145.8556,12.99,87,1,2.37,RU,1698275633
412,awjilah,29.1081,21.2869,23.97,37,88,3.24,LY,1698275634
413,chui,-33.6971,-53.4616,12.31,86,46,3.77,UY,1698275635
414,san jose de jachal,-30.2406,-68.7469,19.92,44,31,4.46,AR,1698275636
415,ozark,37.0209,-93.206,24.66,65,54,0.89,US,1698275584
416,walvis bay,-22.9575,14.5053,15.61,92,58,3.06,NA,1698275638
417,ciudad bolivar,8.1222,-63.5497,30.79,59,90,0.21,VE,1698275639
418,araguaina,-7.1911,-48.2072,29.84,46,53,1.77,BR,1698275462
419,ambon,-3.6954,128.1814,29.37,95,20,1.03,ID,1698275642
420,nazarabad,35.9521,50.6075,11.45,46,5,2.31,IR,1698275643
421,santo antonio,-6.3106,-35.4789,21.95,86,3,3.08,BR,1698275396
422,skelleftea,64.7507,20.9528,-1.8,100,100,1.03,SE,1698275645
423,salalah,17.0151,54.0924,26.05,89,75,1.03,OM,1698275647
424,keflavik,64.0049,-22.5624,6.95,81,0,4.12,IS,1698275648
425,margate,51.3813,1.3862,11.06,94,92,1.44,GB,1698275410
426,lensk,60.7253,114.9278,-2.49,81,100,2.65,RU,1698275650
427,gazipasa,36.2694,32.3179,18.05,72,0,2.57,TR,1698275651
428,nampula,-15.1165,39.2666,23.03,80,1,2.62,MZ,1698275653
429,lengshuitan,26.4111,111.5956,20.61,88,90,2.26,CN,1698275654
430,lazaro cardenas,17.9583,-102.2,27.56,80,100,1.43,MX,1698275466
431,neftegorsk,52.802,51.166,-2.01,73,6,2.59,RU,1698275657
432,afaahiti,-17.75,-149.2833,25.93,76,100,1.71,PF,1698275658
433,nizamabad,18.6667,78.1167,17.92,65,49,0.7,IN,1698275659
434,hanceville,34.0607,-86.7675,23.42,60,7,2.25,US,1698275660
435,zelenoborskiy,66.845,32.3622,-3.07,84,39,2.18,RU,1698275661
436,puerto aysen,-45.4,-72.7,9.09,92,100,2.58,CL,1698275662
437,tauranga,-37.6861,176.1667,20.48,76,97,3.58,NZ,1698275387
438,merritt island,28.5392,-80.672,26.69,74,94,2.68,US,1698275570
439,smithers,54.7804,-127.1743,1.18,37,0,1.54,CA,1698275666
440,ta`u,-14.2336,-169.5144,26.14,74,82,8.92,AS,1698275667
441,fort irwin,35.2627,-116.6848,25.9,30,0,8.79,US,1698275668
442,mana,5.6592,-53.7767,27.45,80,98,5.59,GF,1698275669
443,nushki,29.5542,66.0215,20.46,21,0,2.75,PK,1698275670
444,lagoa,39.05,-27.9833,18.48,75,100,10.61,PT,1698275672
445,noumea,-22.2763,166.4572,27.99,89,87,3.81,NC,1698275262
446,greymouth,-42.4667,171.2,12.34,93,100,6.27,NZ,1698275674
447,nabire,-3.3667,135.4833,26.16,80,100,1.57,ID,1698275675
448,sittwe,20.15,92.9,23.92,90,53,2.47,MM,1698275676
449,saldanha,-33.0117,17.9442,14.03,88,99,7.07,ZA,1698275677
450,baotou,40.6522,109.8222,8.33,38,0,1.64,CN,1698275678
451,arrifes,37.7667,-25.7,21.07,94,75,7.72,PT,1698275680
452,san antonio de pale,-1.4014,5.6325,25.87,82,96,4.82,GQ,1698275681
453,qui nhon,13.7667,109.2333,24.81,89,50,1.72,VN,1698275682
454,gulf breeze,30.3571,-87.1639,24.34,80,40,2.06,US,1698275683
455,slave lake,55.2834,-114.769,-4.01,63,75,5.66,CA,1698275684
456,colonia,50.9333,6.95,11.44,91,100,6.69,DE,1698275602
457,pont rouge,48.8833,-72.0825,10.16,96,100,1.21,CA,1698275686
458,pamandzi,-12.7967,45.2794,26.88,78,20,4.63,YT,1698275688
459,cangucu,-31.395,-52.6756,14.56,89,58,2.05,BR,1698275689
460,ar rahad,12.7167,30.65,29.04,44,25,2.21,SD,1698275690
461,pskov,57.8136,28.3496,-1.05,69,100,5.0,RU,1698275691
462,severo-yeniseyskiy,60.3725,93.0408,-1.35,94,100,2.24,RU,1698275692
463,rocky mountain house,52.3668,-114.9188,-6.94,68,34,1.54,CA,1698275694
464,qamdo,31.1667,97.2333,-3.95,58,37,1.12,CN,1698275695
465,general zuazua,25.9,-100.1167,28.54,67,75,3.6,MX,1698275696
466,el bauga,18.262,33.9081,29.41,30,0,3.98,SD,1698275697
467,stuttgart,48.7823,9.177,13.72,79,0,3.6,DE,1698275412
468,al hazm,16.1641,44.7769,24.57,50,99,2.64,YE,1698275699
469,el calafate,-50.3408,-72.2768,8.12,75,50,6.2,AR,1698275700
470,santa elena de uairen,4.6167,-61.1333,21.85,84,72,0.69,VE,1698275701
471,manturovo,58.3353,44.7619,-2.9,79,100,1.85,RU,1698275702
472,maintirano,-18.0667,44.0167,24.72,87,20,1.27,MG,1698275704
473,hadibu,12.65,54.0333,26.47,80,57,4.09,YE,1698275705
474,yeppoon,-23.1333,150.7333,26.88,55,2,0.93,AU,1698275706
475,daru,-9.0763,143.2092,26.7,65,70,3.67,PG,1698275709
476,hami,42.8,93.45,10.66,40,0,0.33,CN,1698275710
477,ebon,4.582,168.6964,28.61,76,22,5.13,MH,1698275711
478,constantia,44.1833,28.65,19.38,58,84,4.53,RO,1698275712
479,la junta,37.985,-103.5438,18.16,55,0,4.63,US,1698275713
480,ban sam chuk,14.7333,100.1,23.38,94,71,1.63,TH,1698275715
481,mubende,0.5606,31.39,16.16,98,78,0.2,UG,1698275716
482,aktanysh,55.7216,54.0829,-5.18,86,97,4.16,RU,1698275717
483,minas de marcona,-15.2119,-75.1103,15.76,78,70,5.63,PE,1698275718
484,richards bay,-28.783,32.0377,18.42,81,29,0.62,ZA,1698275720
485,thunder bay,48.4001,-89.3168,7.73,77,76,1.41,CA,1698275440
486,pandan,14.0453,124.1694,27.1,79,99,2.1,PH,1698275725
487,tsiombe,-25.3,45.4833,21.52,78,87,2.59,MG,1698275726
488,karlskrona,56.1616,15.5866,6.25,90,100,7.88,SE,1698275727
489,san juan,-31.5375,-68.5364,22.73,39,63,3.88,AR,1698275495
490,yreka,41.7354,-122.6345,13.54,40,0,7.72,US,1698275729
491,gamba,-2.65,10.0,23.68,92,100,1.48,GA,1698275731
492,canavieiras,-15.675,-38.9472,25.52,85,60,6.03,BR,1698275732
493,tucurui,-3.7661,-49.6725,31.39,45,75,0.05,BR,1698275733
494,fort-shevchenko,44.5086,50.263,10.46,68,85,3.68,KZ,1698275734
495,jaisalmer,26.9147,70.9181,26.78,23,0,3.23,IN,1698275736
496,ishikawa,26.4233,127.8214,24.98,78,75,3.09,JP,1698275738
497,elverum,60.8819,11.5623,0.92,90,100,0.85,NO,1698275739
498,tegueste,28.5167,-16.3167,21.46,83,100,1.54,ES,1698275740
499,roxborough park,39.4739,-105.0853,21.18,47,0,3.13,US,1698275741
500,lubango,-14.9172,13.4925,18.72,41,92,1.66,AO,1698275743
501,scarborough,54.2797,-0.4044,10.76,93,100,1.34,GB,1698275744
502,kargil,34.5667,76.1,-0.3,49,1,0.69,IN,1698275745
503,ukwa,21.9667,80.4667,15.28,65,11,1.01,IN,1698275746
504,oroqen zizhiqi,50.5667,123.7167,-1.19,54,3,5.0,CN,1698275747
505,boende,-0.2167,20.8667,22.33,97,90,1.33,CD,1698275748
506,vernon,50.2581,-119.2691,7.01,43,79,4.47,CA,1698275733
507,yverdon-les-bains,46.7785,6.6412,12.6,97,100,4.51,CH,1698275750
508,taipei,25.0478,121.5319,25.02,64,20,4.63,TW,1698275228
509,marquette,46.5333,-87.6335,8.21,96,100,0.45,US,1698275752
510,tofol,5.3248,163.0078,30.88,66,75,1.54,FM,1698275754
511,kerikeri,-35.2268,173.9474,22.17,76,7,0.89,NZ,1698275755
512,nafplio,37.5683,22.8053,22.52,47,100,0.94,GR,1698275756
513,mersa matruh,31.3525,27.2453,20.11,88,0,1.54,EG,1698275757
514,arawa,-6.2132,155.5367,25.94,90,100,1.3,PG,1698275758
515,preobrazheniye,42.9019,133.9064,12.64,73,92,0.32,RU,1698275759
516,siwa oasis,29.2041,25.5195,23.37,31,2,0.75,EG,1698275761
517,nantucket,41.2835,-70.0995,16.67,89,0,7.72,US,1698275545
518,hajin,34.6927,40.827,23.07,50,21,3.56,SY,1698275763
519,eforie sud,44.0229,28.6494,19.45,57,87,3.51,RO,1698275764
520,oamaru,-45.0784,170.9801,18.13,46,73,12.32,NZ,1698275766
521,harper,4.375,-7.7169,25.6,89,100,2.13,LR,1698275767
522,i-n-salah,27.1935,2.4607,28.66,25,8,4.55,DZ,1698275768
523,sitka,57.0531,-135.33,7.94,49,0,1.54,US,1698275770
524,el tambo,1.4181,-77.3968,13.9,94,99,1.12,CO,1698275771
525,esfarayen,37.0765,57.5101,6.81,52,86,0.85,IR,1698275772
526,ulladulla,-35.35,150.4667,15.43,45,9,6.03,AU,1698275773
527,fort frances,48.5999,-93.4003,6.2,76,100,2.43,CA,1698275774
528,khovd,48.0056,91.6419,4.0,28,39,2.47,MN,1698275776
529,urangan,-25.3,152.9,23.8,75,5,5.52,AU,1698275777
530,majuro,7.0897,171.3803,30.98,70,40,2.06,MH,1698275778
531,nieves,15.3274,120.9485,25.73,88,75,0.79,PH,1698275781
532,mongo,12.1844,18.693,27.72,20,2,2.08,TD,1698275782
533,nong ki,14.6868,102.538,25.84,92,87,1.65,TH,1698275784
534,mulanje,-16.0316,35.5,24.14,56,0,3.45,MW,1698275785
535,priob'ye,62.5206,65.5964,-4.47,85,18,2.45,RU,1698275787
536,aripuana,-9.1667,-60.6333,28.46,60,100,1.38,BR,1698275788
537,gorgan,36.8387,54.4348,12.98,94,0,2.06,IR,1698275789
538,kijang,35.2442,129.2139,12.85,63,21,1.51,KR,1698275790
539,kingscliff,-28.2667,153.5667,25.43,65,100,4.12,AU,1698275791
540,porto velho,-8.7619,-63.9039,28.03,74,20,0.0,BR,1698275792
541,hailar,49.2,119.7,-4.84,42,3,3.91,CN,1698275794
542,weno,7.4515,151.8468,29.09,72,99,2.76,FM,1698275795
543,oriximina,-1.7656,-55.8661,30.24,48,37,1.42,BR,1698275639
544,taksimo,56.3444,114.8794,-7.05,67,98,0.7,RU,1698275797
545,canmore,51.0834,-115.3521,-6.29,58,87,1.54,CA,1698275687
546,port saint john's,-31.6229,29.5448,17.35,86,10,3.45,ZA,1698275799
547,nikolayevsk-on-amure,53.1406,140.73,2.21,78,38,1.89,RU,1698275800
